[{"id": "KEEXuHCYhsQJ-zpJhu98bA", "alias": "joes-pizza-new-york-148", "name": "Joe's Pizza", "image_url": "https://s3-media4.fl.yelpcdn.com/bphoto/FluVgKezP5ifs7greHV8Qg/o.jpg", "is_closed": false, "url": "https://www.yelp.com/biz/joes-pizza-new-york-148?adjust_creative=TqzhtA42spPSKOmzDuw9JA&utm_campaign=yelp_api_v3&utm_medium=api_v3_business_search&utm_source=TqzhtA42spPSKOmzDuw9JA", "review_count": 2307, "categories": [{"alias": "pizza", "title": "Pizza"}], "rating": 4.2, "coordinates": {"latitude": 40.7547, "longitude": -73.98696}, "transactions": ["delivery", "pickup"], "price": "$", "location": {"address1": "1435 Broadway", "address2": "", "address3": null, "city": "New York", "zip_code": "10018", "country": "US", "state": "NY", "display_address": ["1435 Broadway", "New York, NY 10018"]}, "phone": "+16465594878", "display_phone": "(646) 559-4878", "distance": 1552.86453787486}, {"id": "oRdM7n-AfBPBGAlH4Q0Sag", "alias": "my-pie-pizzeria-romana-new-york-2", "name": "My Pie Pizzeria Romana", "image_url": "https://s3-media1.fl.yelpcdn.com/bphoto/b3BIzM5lgmuF-W7owEx5xQ/o.jpg", "is_closed": false, "url": "https://www.yelp.com/biz/my-pie-pizzeria-romana-new-york-2?adjust_creative=TqzhtA42spPSKOmzDuw9JA&utm_campaign=yelp_api_v3&utm_medium=api_v3_business_search&utm_source=TqzhtA42spPSKOmzDuw9JA", "review_count": 937, "categories": [{"alias": "pizza", "title": "Pizza"}], "rating": 4.4, "coordinates": {"latitude": 40.7608512, "longitude": -73.9694809}, "transactions": ["delivery", "pickup"], "price": "$$", "location": {"address1": "690 Lexington Ave", "address2": "", "address3": "", "city": "New York", "zip_code": "10022", "country": "US", "state": "NY", "display_address": ["690 Lexington Ave", "New York, NY 10022"]}, "phone": "+12123171850", "display_phone": "(212) 317-1850", "distance": 186.58214310058082}, {"id": "G9hV4H2iGpWD8RoUpjtokg", "alias": "l-industrie-pizzeria-new-york", "name": "L\u2019industrie Pizzeria", "image_url": "https://s3-media4.fl.yelpcdn.com/bphoto/Hzdlv1PI6ZM60HzVwxUc8A/o.jpg", "is_closed": false, "url": "https://www.yelp.com/biz/l-industrie-pizzeria-new-york?adjust_creative=TqzhtA42spPSKOmzDuw9JA&utm_campaign=yelp_api_v3&utm_medium=api_v3_business_search&utm_source=TqzhtA42spPSKOmzDuw9JA", "review_count": 322, "categories": [{"alias": "pizza", "title": "Pizza"}], "rating": 4.6, "coordinates": {"latitude": 40.73323443774397, "longitude": -74.0049081}, "transactions": [], "location": {"address1": "104 Christopher St", "address2": "", "address3": null, "city": "New York", "zip_code": "10014", "country": "US", "state": "NY", "display_address": ["104 Christopher St", "New York, NY 10014"]}, "phone": "+12122560648", "display_phone": "(212) 256-0648", "distance": 4144.896541579684}, {"id": "zj8Lq1T8KIC5zwFief15jg", "alias": "prince-street-pizza-new-york-2", "name": "Prince Street Pizza", "image_url": "https://s3-media1.fl.yelpcdn.com/bphoto/Jo9jBP5y6G_bG_g3H31fiw/o.jpg", "is_closed": false, "url": "https://www.yelp.com/biz/prince-street-pizza-new-york-2?adjust_creative=TqzhtA42spPSKOmzDuw9JA&utm_campaign=yelp_api_v3&utm_medium=api_v3_business_search&utm_source=TqzhtA42spPSKOmzDuw9JA", "review_count": 5346, "categories": [{"alias": "pizza", "title": "Pizza"}, {"alias": "italian", "title": "Italian"}], "rating": 4.3, "coordinates": {"latitude": 40.72308755605564, "longitude": -73.99453001177575}, "transactions": ["delivery", "pickup"], "price": "$", "location": {"address1": "27 Prince St", "address2": null, "address3": "", "city": "New York", "zip_code": "10012", "country": "US", "state": "NY", "display_address": ["27 Prince St", "New York, NY 10012"]}, "phone": "+12129664100", "display_phone": "(212) 966-4100", "distance": 4530.158358332591}, {"id": "EXQ0x2W9RTydIlHAU9MU1A", "alias": "mimis-pizza-east-86th-new-york-2", "name": "Mimi's Pizza - East 86th", "image_url": "https://s3-media3.fl.yelpcdn.com/bphoto/btcWJW_uNq7JEwk2wFMtiQ/o.jpg", "is_closed": false, "url": "https://www.yelp.com/biz/mimis-pizza-east-86th-new-york-2?adjust_creative=TqzhtA42spPSKOmzDuw9JA&utm_campaign=yelp_api_v3&utm_medium=api_v3_business_search&utm_source=TqzhtA42spPSKOmzDuw9JA", "review_count": 211, "categories": [{"alias": "pizza", "title": "Pizza"}], "rating": 4.5, "coordinates": {"latitude": 40.778638, "longitude": -73.952895}, "transactions": ["delivery", "pickup"], "location": {"address1": "217 E 86th St", "address2": null, "address3": "", "city": "New York", "zip_code": "10028", "country": "US", "state": "NY", "display_address": ["217 E 86th St", "New York, NY 10028"]}, "phone": "+16468612518", "display_phone": "(646) 861-2518", "distance": 2577.9373154983723}, {"id": "GgdR6L49eKH5drPaOYOOPQ", "alias": "pops-pizzas-new-york", "name": "Pop's Pizzas", "image_url": "https://s3-media2.fl.yelpcdn.com/bphoto/K51H3tN_XFj8LCYv5raNWQ/o.jpg", "is_closed": false, "url": "https://www.yelp.com/biz/pops-pizzas-new-york?adjust_creative=TqzhtA42spPSKOmzDuw9JA&utm_campaign=yelp_api_v3&utm_medium=api_v3_business_search&utm_source=TqzhtA42spPSKOmzDuw9JA", "review_count": 231, "categories": [{"alias": "pizza", "title": "Pizza"}], "rating": 4.6, "coordinates": {"latitude": 40.767085, "longitude": -73.983103}, "transactions": ["delivery", "pickup"], "price": "$", "location": {"address1": "301 West 57th St", "address2": "Ground Fl", "address3": "", "city": "New York", "zip_code": "10019", "country": "US", "state": "NY", "display_address": ["301 West 57th St", "Ground Fl", "New York, NY 10019"]}, "phone": "+12127848863", "display_phone": "(212) 784-8863", "distance": 1440.0598002104812}, {"id": "-9NO2IDCJMyNGZMAQ1-VQw", "alias": "ny-pizza-suprema-new-york", "name": "NY Pizza Suprema", "image_url": "https://s3-media4.fl.yelpcdn.com/bphoto/EqbDXneMuQP6pw6GemVdQA/o.jpg", "is_closed": false, "url": "https://www.yelp.com/biz/ny-pizza-suprema-new-york?adjust_creative=TqzhtA42spPSKOmzDuw9JA&utm_campaign=yelp_api_v3&utm_medium=api_v3_business_search&utm_source=TqzhtA42spPSKOmzDuw9JA", "review_count": 2682, "categories": [{"alias": "pizza", "title": "Pizza"}], "rating": 4.3, "coordinates": {"latitude": 40.7502059936523, "longitude": -73.9953231811523}, "transactions": ["delivery", "pickup"], "price": "$$", "location": {"address1": "413 8th Ave", "address2": "", "address3": "", "city": "New York", "zip_code": "10001", "country": "US", "state": "NY", "display_address": ["413 8th Ave", "New York, NY 10001"]}, "phone": "+12125948939", "display_phone": "(212) 594-8939", "distance": 2387.061954989499}, {"id": "v1DHGRNCH9247WLYoaoA9A", "alias": "l-industrie-pizzeria-brooklyn", "name": "L'industrie Pizzeria", "image_url": "https://s3-media1.fl.yelpcdn.com/bphoto/1-VBwAOj0g9YKYey3V-Z6Q/o.jpg", "is_closed": false, "url": "https://www.yelp.com/biz/l-industrie-pizzeria-brooklyn?adjust_creative=TqzhtA42spPSKOmzDuw9JA&utm_campaign=yelp_api_v3&utm_medium=api_v3_business_search&utm_source=TqzhtA42spPSKOmzDuw9JA", "review_count": 1368, "categories": [{"alias": "pizza", "title": "Pizza"}], "rating": 4.7, "coordinates": {"latitude": 40.71162, "longitude": -73.95783}, "transactions": ["delivery"], "price": "$$", "location": {"address1": "254 S 2nd St", "address2": "", "address3": "", "city": "Brooklyn", "zip_code": "11211", "country": "US", "state": "NY", "display_address": ["254 S 2nd St", "Brooklyn, NY 11211"]}, "phone": "+17185990002", "display_phone": "(718) 599-0002", "distance": 5382.969880738413}, {"id": "ypJRRRKZtaNad--1EbRBTg", "alias": "roma-pizza-and-restaurant-new-york", "name": "Roma Pizza & Restaurant", "image_url": "https://s3-media2.fl.yelpcdn.com/bphoto/LA5DKU89rzsD41Hta-ECpg/o.jpg", "is_closed": false, "url": "https://www.yelp.com/biz/roma-pizza-and-restaurant-new-york?adjust_creative=TqzhtA42spPSKOmzDuw9JA&utm_campaign=yelp_api_v3&utm_medium=api_v3_business_search&utm_source=TqzhtA42spPSKOmzDuw9JA", "review_count": 52, "categories": [{"alias": "pizza", "title": "Pizza"}, {"alias": "seafood", "title": "Seafood"}, {"alias": "catering", "title": "Caterers"}], "rating": 4.7, "coordinates": {"latitude": 40.751211, "longitude": -73.986364}, "transactions": ["delivery", "pickup"], "location": {"address1": "980 6th Ave", "address2": null, "address3": "", "city": "New York", "zip_code": "10018", "country": "US", "state": "NY", "display_address": ["980 6th Ave", "New York, NY 10018"]}, "phone": "+12124578555", "display_phone": "(212) 457-8555", "distance": 1669.7516613878195}, {"id": "YchMTqpM6xksrpqXR0YUrQ", "alias": "xeno-s-pizza-new-york", "name": "Xeno\u2019s Pizza", "image_url": "https://s3-media1.fl.yelpcdn.com/bphoto/dVkXWNvDYPgZ7OesI246Kw/o.jpg", "is_closed": false, "url": "https://www.yelp.com/biz/xeno-s-pizza-new-york?adjust_creative=TqzhtA42spPSKOmzDuw9JA&utm_campaign=yelp_api_v3&utm_medium=api_v3_business_search&utm_source=TqzhtA42spPSKOmzDuw9JA", "review_count": 39, "categories": [{"alias": "pizza", "title": "Pizza"}], "rating": 4.2, "coordinates": {"latitude": 40.75728, "longitude": -73.97008}, "transactions": ["delivery", "pickup"], "location": {"address1": "163 E 52nd St", "address2": "", "address3": null, "city": "New York", "zip_code": "10022", "country": "US", "state": "NY", "display_address": ["163 E 52nd St", "New York, NY 10022"]}, "phone": "+16469520030", "display_phone": "(646) 952-0030", "distance": 210.61563672529866}, {"id": "AOZlppihRNG8Y2N4Jid30A", "alias": "brooklyn-pizza-masters-new-york", "name": "Brooklyn Pizza Masters", "image_url": "https://s3-media1.fl.yelpcdn.com/bphoto/Dko2ofSegIWoF3n57Y5ISQ/o.jpg", "is_closed": false, "url": "https://www.yelp.com/biz/brooklyn-pizza-masters-new-york?adjust_creative=TqzhtA42spPSKOmzDuw9JA&utm_campaign=yelp_api_v3&utm_medium=api_v3_business_search&utm_source=TqzhtA42spPSKOmzDuw9JA", "review_count": 258, "categories": [{"alias": "pizza", "title": "Pizza"}, {"alias": "salad", "title": "Salad"}], "rating": 4.3, "coordinates": {"latitude": 40.75869828079016, "longitude": -73.962919097227}, "transactions": ["delivery", "pickup"], "location": {"address1": "1055 1st Ave", "address2": "", "address3": null, "city": "New York", "zip_code": "10022", "country": "US", "state": "NY", "display_address": ["1055 1st Ave", "New York, NY 10022"]}, "phone": "+16466697757", "display_phone": "(646) 669-7757", "distance": 563.0113927421821}, {"id": "tRIHhPKryUZ56SfIz6mLiA", "alias": "angelos-coal-oven-pizzeria-new-york", "name": "Angelo's Coal Oven Pizzeria", "image_url": "https://s3-media2.fl.yelpcdn.com/bphoto/0XEf78-yZ-plQXosA3oFlw/o.jpg", "is_closed": false, "url": "https://www.yelp.com/biz/angelos-coal-oven-pizzeria-new-york?adjust_creative=TqzhtA42spPSKOmzDuw9JA&utm_campaign=yelp_api_v3&utm_medium=api_v3_business_search&utm_source=TqzhtA42spPSKOmzDuw9JA", "review_count": 1329, "categories": [{"alias": "pizza", "title": "Pizza"}, {"alias": "italian", "title": "Italian"}], "rating": 4.0, "coordinates": {"latitude": 40.76492, "longitude": -73.97794}, "transactions": ["delivery", "pickup"], "price": "$$", "location": {"address1": "117 W 57th St", "address2": "", "address3": "", "city": "New York", "zip_code": "10019", "country": "US", "state": "NY", "display_address": ["117 W 57th St", "New York, NY 10019"]}, "phone": "+12123334333", "display_phone": "(212) 333-4333", "distance": 951.371290575802}, {"id": "KEgdfVEVVgJFnGFiLNPDzQ", "alias": "sofia-pizza-shoppe-new-york", "name": "Sofia Pizza Shoppe", "image_url": "https://s3-media2.fl.yelpcdn.com/bphoto/XTOP8koYT-ccWAPx2cUIKg/o.jpg", "is_closed": false, "url": "https://www.yelp.com/biz/sofia-pizza-shoppe-new-york?adjust_creative=TqzhtA42spPSKOmzDuw9JA&utm_campaign=yelp_api_v3&utm_medium=api_v3_business_search&utm_source=TqzhtA42spPSKOmzDuw9JA", "review_count": 262, "categories": [{"alias": "pizza", "title": "Pizza"}], "rating": 4.4, "coordinates": {"latitude": 40.75674, "longitude": -73.96431}, "transactions": ["delivery", "pickup"], "price": "$", "location": {"address1": "989 1st Ave", "address2": "", "address3": null, "city": "New York", "zip_code": "10022", "country": "US", "state": "NY", "display_address": ["989 1st Ave", "New York, NY 10022"]}, "phone": "+12128888816", "display_phone": "(212) 888-8816", "distance": 520.3312331060953}, {"id": "iUnELVbiyEszV8DiVB3CTA", "alias": "see-no-evil-pizza-new-york", "name": "See No Evil Pizza", "image_url": "https://s3-media3.fl.yelpcdn.com/bphoto/XOTyidNS18dtgwDU41iSQw/o.jpg", "is_closed": false, "url": "https://www.yelp.com/biz/see-no-evil-pizza-new-york?adjust_creative=TqzhtA42spPSKOmzDuw9JA&utm_campaign=yelp_api_v3&utm_medium=api_v3_business_search&utm_source=TqzhtA42spPSKOmzDuw9JA", "review_count": 17, "categories": [{"alias": "pizza", "title": "Pizza"}], "rating": 4.8, "coordinates": {"latitude": 40.761482, "longitude": -73.984508}, "transactions": ["delivery", "pickup"], "location": {"address1": "210 W 50th St", "address2": "Conourse  1", "address3": null, "city": "New York", "zip_code": "10019", "country": "US", "state": "NY", "display_address": ["210 W 50th St", "Conourse  1", "New York, NY 10019"]}, "phone": "", "display_phone": "", "distance": 1284.2877252969977}, {"id": "XujJhk-uQQezYgxyx-YN5Q", "alias": "parla-new-york", "name": "Parla", "image_url": "https://s3-media3.fl.yelpcdn.com/bphoto/65VnWTH-CoFLfWoFK__qjg/o.jpg", "is_closed": false, "url": "https://www.yelp.com/biz/parla-new-york?adjust_creative=TqzhtA42spPSKOmzDuw9JA&utm_campaign=yelp_api_v3&utm_medium=api_v3_business_search&utm_source=TqzhtA42spPSKOmzDuw9JA", "review_count": 91, "categories": [{"alias": "pizza", "title": "Pizza"}, {"alias": "pastashops", "title": "Pasta Shops"}, {"alias": "cocktailbars", "title": "Cocktail Bars"}], "rating": 4.3, "coordinates": {"latitude": 40.779604142118245, "longitude": -73.9775782278624}, "transactions": [], "price": "$$", "location": {"address1": "320 Columbus Ave", "address2": "", "address3": null, "city": "New York", "zip_code": "10023", "country": "US", "state": "NY", "display_address": ["320 Columbus Ave", "New York, NY 10023"]}, "phone": "+12127029006", "display_phone": "(212) 702-9006", "distance": 2369.5437016537244}, {"id": "V4-ds3mhlB7uLLY9qfZTJQ", "alias": "abitinos-pizzeria-new-york-17", "name": "Abitino's Pizzeria", "image_url": "https://s3-media2.fl.yelpcdn.com/bphoto/7RzwMz38XT1vtEza41hN5A/o.jpg", "is_closed": false, "url": "https://www.yelp.com/biz/abitinos-pizzeria-new-york-17?adjust_creative=TqzhtA42spPSKOmzDuw9JA&utm_campaign=yelp_api_v3&utm_medium=api_v3_business_search&utm_source=TqzhtA42spPSKOmzDuw9JA", "review_count": 69, "categories": [{"alias": "pizza", "title": "Pizza"}], "rating": 4.3, "coordinates": {"latitude": 40.75958, "longitude": -73.97747}, "transactions": ["delivery", "pickup"], "location": {"address1": "5 West 51 St", "address2": null, "address3": "", "city": "New York", "zip_code": "10020", "country": "US", "state": "NY", "display_address": ["5 West 51 St", "New York, NY 10020"]}, "phone": "+12123566181", "display_phone": "(212) 356-6181", "distance": 667.90284054447}, {"id": "2MuvmwOuwvGOWkBimhniLA", "alias": "la-bellezza-new-york", "name": "La Bellezza", "image_url": "https://s3-media2.fl.yelpcdn.com/bphoto/75SVEMwv8WbLIB4eYzPdLA/o.jpg", "is_closed": false, "url": "https://www.yelp.com/biz/la-bellezza-new-york?adjust_creative=TqzhtA42spPSKOmzDuw9JA&utm_campaign=yelp_api_v3&utm_medium=api_v3_business_search&utm_source=TqzhtA42spPSKOmzDuw9JA", "review_count": 309, "categories": [{"alias": "pizza", "title": "Pizza"}], "rating": 4.1, "coordinates": {"latitude": 40.7557792663574, "longitude": -73.9720153808594}, "transactions": ["delivery", "pickup"], "price": "$", "location": {"address1": "145 E 49th St", "address2": "", "address3": "", "city": "New York", "zip_code": "10017", "country": "US", "state": "NY", "display_address": ["145 E 49th St", "New York, NY 10017"]}, "phone": "+12128713223", "display_phone": "(212) 871-3223", "distance": 426.901060768092}, {"id": "2-GsvFaQpVpbaIdwb9lSeQ", "alias": "andiamo-pizza-new-york-2", "name": "Andiamo Pizza", "image_url": "https://s3-media2.fl.yelpcdn.com/bphoto/1p0cE3ZKgflstS6s__3fuQ/o.jpg", "is_closed": false, "url": "https://www.yelp.com/biz/andiamo-pizza-new-york-2?adjust_creative=TqzhtA42spPSKOmzDuw9JA&utm_campaign=yelp_api_v3&utm_medium=api_v3_business_search&utm_source=TqzhtA42spPSKOmzDuw9JA", "review_count": 212, "categories": [{"alias": "pizza", "title": "Pizza"}, {"alias": "italian", "title": "Italian"}, {"alias": "catering", "title": "Caterers"}], "rating": 4.5, "coordinates": {"latitude": 40.746144, "longitude": -73.990189}, "transactions": ["delivery", "pickup"], "location": {"address1": "818 6th Ave", "address2": null, "address3": "", "city": "New York", "zip_code": "10001", "country": "US", "state": "NY", "display_address": ["818 6th Ave", "New York, NY 10001"]}, "phone": "+12122542860", "display_phone": "(212) 254-2860", "distance": 2263.1122742182406}, {"id": "vVVmHacu2YAxKfpIjhfd1g", "alias": "norma-new-york-5", "name": "Norma", "image_url": "https://s3-media3.fl.yelpcdn.com/bphoto/qJKt5l2xSBUKOFRA6UOqVg/o.jpg", "is_closed": false, "url": "https://www.yelp.com/biz/norma-new-york-5?adjust_creative=TqzhtA42spPSKOmzDuw9JA&utm_campaign=yelp_api_v3&utm_medium=api_v3_business_search&utm_source=TqzhtA42spPSKOmzDuw9JA", "review_count": 670, "categories": [{"alias": "italian", "title": "Italian"}, {"alias": "pizza", "title": "Pizza"}], "rating": 4.4, "coordinates": {"latitude": 40.743553, "longitude": -73.980026}, "transactions": ["delivery", "pickup"], "price": "$$", "location": {"address1": "438 3rd Ave", "address2": null, "address3": "", "city": "New York", "zip_code": "10016", "country": "US", "state": "NY", "display_address": ["438 3rd Ave", "New York, NY 10016"]}, "phone": "+12128890600", "display_phone": "(212) 889-0600", "distance": 1942.2913842319626}, {"id": "WG639VkTjmK5dzydd1BBJA", "alias": "rubirosa-new-york-2", "name": "Rubirosa", "image_url": "https://s3-media3.fl.yelpcdn.com/bphoto/l0Phrnhhj78RFiDhLIOUyQ/o.jpg", "is_closed": false, "url": "https://www.yelp.com/biz/rubirosa-new-york-2?adjust_creative=TqzhtA42spPSKOmzDuw9JA&utm_campaign=yelp_api_v3&utm_medium=api_v3_business_search&utm_source=TqzhtA42spPSKOmzDuw9JA", "review_count": 3400, "categories": [{"alias": "italian", "title": "Italian"}, {"alias": "pizza", "title": "Pizza"}], "rating": 4.3, "coordinates": {"latitude": 40.722766, "longitude": -73.996233}, "transactions": ["pickup"], "price": "$$", "location": {"address1": "235 Mulberry St", "address2": "", "address3": "", "city": "New York", "zip_code": "10012", "country": "US", "state": "NY", "display_address": ["235 Mulberry St", "New York, NY 10012"]}, "phone": "+12129650500", "display_phone": "(212) 965-0500", "distance": 4629.739253785127}, {"id": "EMKsuz1fQIGqmWPp3ZEDmA", "alias": "vitos-slices-and-ices-new-york-2", "name": "Vito's Slices and Ices", "image_url": "https://s3-media3.fl.yelpcdn.com/bphoto/mLYlRdwwEGsCIteX1gKp-w/o.jpg", "is_closed": false, "url": "https://www.yelp.com/biz/vitos-slices-and-ices-new-york-2?adjust_creative=TqzhtA42spPSKOmzDuw9JA&utm_campaign=yelp_api_v3&utm_medium=api_v3_business_search&utm_source=TqzhtA42spPSKOmzDuw9JA", "review_count": 417, "categories": [{"alias": "pizza", "title": "Pizza"}, {"alias": "shavedice", "title": "Shaved Ice"}, {"alias": "italian", "title": "Italian"}], "rating": 4.6, "coordinates": {"latitude": 40.7545, "longitude": -73.99528}, "transactions": ["delivery", "pickup"], "price": "$", "location": {"address1": "464 9th Ave", "address2": null, "address3": "", "city": "New York", "zip_code": "10018", "country": "US", "state": "NY", "display_address": ["464 9th Ave", "New York, NY 10018"]}, "phone": "+12122731186", "display_phone": "(212) 273-1186", "distance": 2220.536218854018}, {"id": "wKku3dhD7ZUT1eGQxfY7uA", "alias": "robertas-pizza-new-york-3", "name": "Roberta's Pizza", "image_url": "https://s3-media2.fl.yelpcdn.com/bphoto/OSPN5DTcdrEvwA-ZkzDJDg/o.jpg", "is_closed": false, "url": "https://www.yelp.com/biz/robertas-pizza-new-york-3?adjust_creative=TqzhtA42spPSKOmzDuw9JA&utm_campaign=yelp_api_v3&utm_medium=api_v3_business_search&utm_source=TqzhtA42spPSKOmzDuw9JA", "review_count": 42, "categories": [{"alias": "pizza", "title": "Pizza"}], "rating": 3.4, "coordinates": {"latitude": 40.75686, "longitude": -73.97228}, "transactions": [], "location": {"address1": "570 Lexington Ave", "address2": "(at E 51st St)", "address3": null, "city": "New York", "zip_code": "10022", "country": "US", "state": "NY", "display_address": ["570 Lexington Ave", "(at E 51st St)", "New York, NY 10022"]}, "phone": "", "display_phone": "", "distance": 343.793599907546}, {"id": "DJSLGbSqCJ1W8ma3LFlMuw", "alias": "patzeria-perfect-pizza-new-york", "name": "Patzeria Perfect Pizza", "image_url": "https://s3-media3.fl.yelpcdn.com/bphoto/dpzkbeMLu1zSZoRRny5reg/o.jpg", "is_closed": false, "url": "https://www.yelp.com/biz/patzeria-perfect-pizza-new-york?adjust_creative=TqzhtA42spPSKOmzDuw9JA&utm_campaign=yelp_api_v3&utm_medium=api_v3_business_search&utm_source=TqzhtA42spPSKOmzDuw9JA", "review_count": 1847, "categories": [{"alias": "pizza", "title": "Pizza"}, {"alias": "italian", "title": "Italian"}, {"alias": "pastashops", "title": "Pasta Shops"}], "rating": 4.0, "coordinates": {"latitude": 40.75949451155184, "longitude": -73.98673451962638}, "transactions": ["delivery", "pickup"], "price": "$", "location": {"address1": "231 W 46th St", "address2": null, "address3": "", "city": "New York", "zip_code": "10036", "country": "US", "state": "NY", "display_address": ["231 W 46th St", "New York, NY 10036"]}, "phone": "+12125757646", "display_phone": "(212) 575-7646", "distance": 1445.7922390468643}, {"id": "S4UrW1Kc5KiWZ2Cu17iqIw", "alias": "mimi-s-pizza-broadway-new-york-2", "name": "Mimi\u2019s Pizza - Broadway", "image_url": "https://s3-media2.fl.yelpcdn.com/bphoto/RlZonRRFPw_FuLA1FEnbMg/o.jpg", "is_closed": false, "url": "https://www.yelp.com/biz/mimi-s-pizza-broadway-new-york-2?adjust_creative=TqzhtA42spPSKOmzDuw9JA&utm_campaign=yelp_api_v3&utm_medium=api_v3_business_search&utm_source=TqzhtA42spPSKOmzDuw9JA", "review_count": 19, "categories": [{"alias": "pizza", "title": "Pizza"}], "rating": 4.6, "coordinates": {"latitude": 40.789523, "longitude": -73.975874}, "transactions": ["delivery", "pickup"], "location": {"address1": "2393 Broadway", "address2": null, "address3": "", "city": "New York", "zip_code": "10024", "country": "US", "state": "NY", "display_address": ["2393 Broadway", "New York, NY 10024"]}, "phone": "+12129708887", "display_phone": "(212) 970-8887", "distance": 3417.6447393788076}, {"id": "KZ1pkKy5A6v5RZ6J1zO4mg", "alias": "two-boots-new-york-16", "name": "Two Boots", "image_url": "https://s3-media1.fl.yelpcdn.com/bphoto/9FQJ_zYrmmzRTi-51-C87Q/o.jpg", "is_closed": false, "url": "https://www.yelp.com/biz/two-boots-new-york-16?adjust_creative=TqzhtA42spPSKOmzDuw9JA&utm_campaign=yelp_api_v3&utm_medium=api_v3_business_search&utm_source=TqzhtA42spPSKOmzDuw9JA", "review_count": 21, "categories": [{"alias": "pizza", "title": "Pizza"}], "rating": 4.4, "coordinates": {"latitude": 40.77645356952662, "longitude": -73.97907264104424}, "transactions": ["delivery", "pickup"], "location": {"address1": "70 W 71st St", "address2": "", "address3": null, "city": "New York", "zip_code": "10023", "country": "US", "state": "NY", "display_address": ["70 W 71st St", "New York, NY 10023"]}, "phone": "+16468613970", "display_phone": "(646) 861-3970", "distance": 2081.1904749735118}, {"id": "fyC2cBsQ0FsMJmv0jSworg", "alias": "donna-margherita-new-york", "name": "Donna Margherita", "image_url": "https://s3-media4.fl.yelpcdn.com/bphoto/mkWz9h3ToPh1DVMs2AOUWg/o.jpg", "is_closed": false, "url": "https://www.yelp.com/biz/donna-margherita-new-york?adjust_creative=TqzhtA42spPSKOmzDuw9JA&utm_campaign=yelp_api_v3&utm_medium=api_v3_business_search&utm_source=TqzhtA42spPSKOmzDuw9JA", "review_count": 215, "categories": [{"alias": "pizza", "title": "Pizza"}, {"alias": "italian", "title": "Italian"}, {"alias": "wine_bars", "title": "Wine Bars"}], "rating": 4.6, "coordinates": {"latitude": 40.76652, "longitude": -73.9598}, "transactions": ["delivery", "pickup"], "price": "$$", "location": {"address1": "1304 2nd Ave", "address2": "Ste A", "address3": null, "city": "New York", "zip_code": "10065", "country": "US", "state": "NY", "display_address": ["1304 2nd Ave", "Ste A", "New York, NY 10065"]}, "phone": "+12127721169", "display_phone": "(212) 772-1169", "distance": 1158.3024402854205}, {"id": "xsQTIeq-WLkp4ParkTQpMQ", "alias": "pizzarte-new-york", "name": "PizzArte", "image_url": "https://s3-media1.fl.yelpcdn.com/bphoto/FD2amDUAhuqIyRcd_S7d-A/o.jpg", "is_closed": false, "url": "https://www.yelp.com/biz/pizzarte-new-york?adjust_creative=TqzhtA42spPSKOmzDuw9JA&utm_campaign=yelp_api_v3&utm_medium=api_v3_business_search&utm_source=TqzhtA42spPSKOmzDuw9JA", "review_count": 1355, "categories": [{"alias": "pizza", "title": "Pizza"}, {"alias": "italian", "title": "Italian"}, {"alias": "gluten_free", "title": "Gluten-Free"}], "rating": 4.1, "coordinates": {"latitude": 40.7629335072372, "longitude": -73.9776668697596}, "transactions": ["delivery", "pickup"], "price": "$$", "location": {"address1": "69 W 55th St", "address2": "", "address3": "", "city": "New York", "zip_code": "10019", "country": "US", "state": "NY", "display_address": ["69 W 55th St", "New York, NY 10019"]}, "phone": "+12122473936", "display_phone": "(212) 247-3936", "distance": 799.5513204887}, {"id": "ysqgdbSrezXgVwER2kQWKA", "alias": "julianas-brooklyn-3", "name": "Juliana's", "image_url": "https://s3-media2.fl.yelpcdn.com/bphoto/od36nFW220aMFAnNP00ocw/o.jpg", "is_closed": false, "url": "https://www.yelp.com/biz/julianas-brooklyn-3?adjust_creative=TqzhtA42spPSKOmzDuw9JA&utm_campaign=yelp_api_v3&utm_medium=api_v3_business_search&utm_source=TqzhtA42spPSKOmzDuw9JA", "review_count": 2800, "categories": [{"alias": "pizza", "title": "Pizza"}], "rating": 4.4, "coordinates": {"latitude": 40.70274718768062, "longitude": -73.99343490196397}, "transactions": ["delivery"], "price": "$$", "location": {"address1": "19 Old Fulton St", "address2": "", "address3": "", "city": "Brooklyn", "zip_code": "11201", "country": "US", "state": "NY", "display_address": ["19 Old Fulton St", "Brooklyn, NY 11201"]}, "phone": "+17185966700", "display_phone": "(718) 596-6700", "distance": 6588.703538511196}, {"id": "1XK53gaHMFQIA4VW3B6k1Q", "alias": "abaita-new-york", "name": "Abaita", "image_url": "https://s3-media2.fl.yelpcdn.com/bphoto/8wq2jvkTV_4Zn8XhostJQA/o.jpg", "is_closed": false, "url": "https://www.yelp.com/biz/abaita-new-york?adjust_creative=TqzhtA42spPSKOmzDuw9JA&utm_campaign=yelp_api_v3&utm_medium=api_v3_business_search&utm_source=TqzhtA42spPSKOmzDuw9JA", "review_count": 138, "categories": [{"alias": "mediterranean", "title": "Mediterranean"}, {"alias": "kosher", "title": "Kosher"}, {"alias": "pizza", "title": "Pizza"}], "rating": 4.3, "coordinates": {"latitude": 40.755541483222, "longitude": -73.9718742367706}, "transactions": ["delivery"], "location": {"address1": "145 E 49th St", "address2": null, "address3": "", "city": "New York", "zip_code": "10017", "country": "US", "state": "NY", "display_address": ["145 E 49th St", "New York, NY 10017"]}, "phone": "+16468085518", "display_phone": "(646) 808-5518", "distance": 448.0513942317947}, {"id": "abggh5Z_05F0XfTdbRPPHw", "alias": "sim\u00f2-pizza-midtown-new-york-2", "name": "Sim\u00f2 Pizza - Midtown", "image_url": "https://s3-media1.fl.yelpcdn.com/bphoto/nVCaD1I3X9TI_3E2tsiGkw/o.jpg", "is_closed": false, "url": "https://www.yelp.com/biz/sim%C3%B2-pizza-midtown-new-york-2?adjust_creative=TqzhtA42spPSKOmzDuw9JA&utm_campaign=yelp_api_v3&utm_medium=api_v3_business_search&utm_source=TqzhtA42spPSKOmzDuw9JA", "review_count": 10, "categories": [{"alias": "pizza", "title": "Pizza"}, {"alias": "italian", "title": "Italian"}], "rating": 4.7, "coordinates": {"latitude": 40.76069865558147, "longitude": -73.97887453290451}, "transactions": ["delivery", "pickup"], "location": {"address1": "1290 6th Ave", "address2": "", "address3": "", "city": "New York", "zip_code": "10104", "country": "US", "state": "NY", "display_address": ["1290 6th Ave", "New York, NY 10104"]}, "phone": "+16463988666", "display_phone": "(646) 398-8666", "distance": 801.4558738142241}, {"id": "ZVJXZ-NVHz3zVSCdMalP-g", "alias": "york-ave-pizza-new-york", "name": "York Ave Pizza", "image_url": "https://s3-media4.fl.yelpcdn.com/bphoto/aFzLxX5QmBDBKkqW0ItCgg/o.jpg", "is_closed": false, "url": "https://www.yelp.com/biz/york-ave-pizza-new-york?adjust_creative=TqzhtA42spPSKOmzDuw9JA&utm_campaign=yelp_api_v3&utm_medium=api_v3_business_search&utm_source=TqzhtA42spPSKOmzDuw9JA", "review_count": 60, "categories": [{"alias": "pizza", "title": "Pizza"}], "rating": 4.4, "coordinates": {"latitude": 40.766941, "longitude": -73.954379}, "transactions": ["delivery", "pickup"], "location": {"address1": "434 E 72nd St", "address2": "", "address3": null, "city": "New York", "zip_code": "10021", "country": "US", "state": "NY", "display_address": ["434 E 72nd St", "New York, NY 10021"]}, "phone": "+12127444000", "display_phone": "(212) 744-4000", "distance": 1541.1324884957712}, {"id": "dr97fLnPtmXv-1u9MOUmhw", "alias": "graffito-pizza-savannah", "name": "Graffito Pizza", "image_url": "https://s3-media3.fl.yelpcdn.com/bphoto/FCVvVPFkvglnf148OeU9Xw/o.jpg", "is_closed": false, "url": "https://www.yelp.com/biz/graffito-pizza-savannah?adjust_creative=TqzhtA42spPSKOmzDuw9JA&utm_campaign=yelp_api_v3&utm_medium=api_v3_business_search&utm_source=TqzhtA42spPSKOmzDuw9JA", "review_count": 163, "categories": [{"alias": "pizza", "title": "Pizza"}], "rating": 4.1, "coordinates": {"latitude": 32.0834197, "longitude": -81.09538429999999}, "transactions": [], "price": "$$", "location": {"address1": "400 W River St", "address2": null, "address3": "Plant Riverside District", "city": "Savannah", "zip_code": "31401", "country": "US", "state": "GA", "display_address": ["400 W River St", "Plant Riverside District", "Savannah, GA 31401"]}, "phone": "+19123739060", "display_phone": "(912) 373-9060", "distance": 2316.968681663564}, {"id": "S4ZgNfuLH2i0ScdaxaHg3w", "alias": "uncle-vinny-s-pizza-new-york", "name": "Uncle Vinny\u2019s Pizza", "image_url": "https://s3-media3.fl.yelpcdn.com/bphoto/m3DTIh7Z0x0Vv7-urUngjw/o.jpg", "is_closed": false, "url": "https://www.yelp.com/biz/uncle-vinny-s-pizza-new-york?adjust_creative=TqzhtA42spPSKOmzDuw9JA&utm_campaign=yelp_api_v3&utm_medium=api_v3_business_search&utm_source=TqzhtA42spPSKOmzDuw9JA", "review_count": 22, "categories": [{"alias": "pizza", "title": "Pizza"}], "rating": 4.3, "coordinates": {"latitude": 40.761795, "longitude": -73.96008}, "transactions": ["delivery", "pickup"], "location": {"address1": "1140 1st Ave", "address2": null, "address3": "", "city": "New York", "zip_code": "10065", "country": "US", "state": "NY", "display_address": ["1140 1st Ave", "New York, NY 10065"]}, "phone": "+12128385080", "display_phone": "(212) 838-5080", "distance": 852.3048575942885}, {"id": "pGr5QuQU7Ur5GHLvXbT8bw", "alias": "paulie-gees-brooklyn", "name": "Paulie Gee's", "image_url": "https://s3-media2.fl.yelpcdn.com/bphoto/BgnKLCGphnQw_8jrltMlHA/o.jpg", "is_closed": false, "url": "https://www.yelp.com/biz/paulie-gees-brooklyn?adjust_creative=TqzhtA42spPSKOmzDuw9JA&utm_campaign=yelp_api_v3&utm_medium=api_v3_business_search&utm_source=TqzhtA42spPSKOmzDuw9JA", "review_count": 1390, "categories": [{"alias": "pizza", "title": "Pizza"}], "rating": 4.3, "coordinates": {"latitude": 40.72955, "longitude": -73.95857}, "transactions": ["pickup"], "price": "$$", "location": {"address1": "60 Greenpoint Ave", "address2": "", "address3": "", "city": "Brooklyn", "zip_code": "11222", "country": "US", "state": "NY", "display_address": ["60 Greenpoint Ave", "Brooklyn, NY 11222"]}, "phone": "+13479873747", "display_phone": "(347) 987-3747", "distance": 3422.3078961499905}, {"id": "JFw_Zj4CFTJbTPKJdPQ_Gw", "alias": "freddie-and-peppers-new-york", "name": "Freddie & Pepper's", "image_url": "https://s3-media1.fl.yelpcdn.com/bphoto/4CHI0CVxEm31H4XTlFifjw/o.jpg", "is_closed": false, "url": "https://www.yelp.com/biz/freddie-and-peppers-new-york?adjust_creative=TqzhtA42spPSKOmzDuw9JA&utm_campaign=yelp_api_v3&utm_medium=api_v3_business_search&utm_source=TqzhtA42spPSKOmzDuw9JA", "review_count": 544, "categories": [{"alias": "pizza", "title": "Pizza"}], "rating": 4.0, "coordinates": {"latitude": 40.779999, "longitude": -73.980301}, "transactions": ["delivery"], "price": "$", "location": {"address1": "303 Amsterdam Ave", "address2": "", "address3": "", "city": "New York", "zip_code": "10023", "country": "US", "state": "NY", "display_address": ["303 Amsterdam Ave", "New York, NY 10023"]}, "phone": "+12127992378", "display_phone": "(212) 799-2378", "distance": 2485.523445168518}, {"id": "IcEtg4yaHoe9To7Db1irBA", "alias": "made-in-new-york-pizza-new-york", "name": "Made In New York Pizza", "image_url": "https://s3-media1.fl.yelpcdn.com/bphoto/SCKgnNks0OKQCm2KFswPwg/o.jpg", "is_closed": false, "url": "https://www.yelp.com/biz/made-in-new-york-pizza-new-york?adjust_creative=TqzhtA42spPSKOmzDuw9JA&utm_campaign=yelp_api_v3&utm_medium=api_v3_business_search&utm_source=TqzhtA42spPSKOmzDuw9JA", "review_count": 579, "categories": [{"alias": "pizza", "title": "Pizza"}], "rating": 4.2, "coordinates": {"latitude": 40.783841, "longitude": -73.977569}, "transactions": ["delivery", "pickup"], "price": "$", "location": {"address1": "421 Amsterdam Ave", "address2": "", "address3": null, "city": "New York", "zip_code": "10024", "country": "US", "state": "NY", "display_address": ["421 Amsterdam Ave", "New York, NY 10024"]}, "phone": "+16464846200", "display_phone": "(646) 484-6200", "distance": 2824.187223065665}, {"id": "FKzpfWUpyupl4q74Jt8fTA", "alias": "don-antonio-new-york-5", "name": "Don Antonio", "image_url": "https://s3-media2.fl.yelpcdn.com/bphoto/BfTkXV07qS3ZUCoO0n1JYw/o.jpg", "is_closed": false, "url": "https://www.yelp.com/biz/don-antonio-new-york-5?adjust_creative=TqzhtA42spPSKOmzDuw9JA&utm_campaign=yelp_api_v3&utm_medium=api_v3_business_search&utm_source=TqzhtA42spPSKOmzDuw9JA", "review_count": 1756, "categories": [{"alias": "pizza", "title": "Pizza"}, {"alias": "italian", "title": "Italian"}, {"alias": "cocktailbars", "title": "Cocktail Bars"}], "rating": 4.0, "coordinates": {"latitude": 40.762711, "longitude": -73.986708}, "transactions": ["delivery", "pickup"], "price": "$$", "location": {"address1": "309 W 50th St", "address2": "", "address3": "", "city": "New York", "zip_code": "10019", "country": "US", "state": "NY", "display_address": ["309 W 50th St", "New York, NY 10019"]}, "phone": "+16467191043", "display_phone": "(646) 719-1043", "distance": 1495.6998602280514}, {"id": "tRzgMtWOQfGUocgxjQgUvg", "alias": "little-italy-pizza-new-york-35", "name": "Little Italy Pizza", "image_url": "https://s3-media2.fl.yelpcdn.com/bphoto/J0ahsm7szCePZUeFosIpdQ/o.jpg", "is_closed": false, "url": "https://www.yelp.com/biz/little-italy-pizza-new-york-35?adjust_creative=TqzhtA42spPSKOmzDuw9JA&utm_campaign=yelp_api_v3&utm_medium=api_v3_business_search&utm_source=TqzhtA42spPSKOmzDuw9JA", "review_count": 98, "categories": [{"alias": "pizza", "title": "Pizza"}, {"alias": "italian", "title": "Italian"}], "rating": 3.6, "coordinates": {"latitude": 40.7605713, "longitude": -73.9674812}, "transactions": ["delivery", "pickup"], "location": {"address1": "958 3rd Ave", "address2": null, "address3": "", "city": "New York", "zip_code": "10022", "country": "US", "state": "NY", "display_address": ["958 3rd Ave", "New York, NY 10022"]}, "phone": "+12123553434", "display_phone": "(212) 355-3434", "distance": 235.6230586501365}, {"id": "15k7iqFbhf4h8L01yggLqg", "alias": "song-e-napule-new-york", "name": "Song E Napule", "image_url": "https://s3-media2.fl.yelpcdn.com/bphoto/SQCbvLJTKKJX_tZXpeOP5g/o.jpg", "is_closed": false, "url": "https://www.yelp.com/biz/song-e-napule-new-york?adjust_creative=TqzhtA42spPSKOmzDuw9JA&utm_campaign=yelp_api_v3&utm_medium=api_v3_business_search&utm_source=TqzhtA42spPSKOmzDuw9JA", "review_count": 765, "categories": [{"alias": "pizza", "title": "Pizza"}, {"alias": "italian", "title": "Italian"}], "rating": 4.5, "coordinates": {"latitude": 40.72813, "longitude": -74.00188}, "transactions": ["delivery", "pickup"], "price": "$$", "location": {"address1": "146 W Houston St", "address2": null, "address3": "", "city": "New York", "zip_code": "10012", "country": "US", "state": "NY", "display_address": ["146 W Houston St", "New York, NY 10012"]}, "phone": "+12125331242", "display_phone": "(212) 533-1242", "distance": 4389.774180666956}, {"id": "LF1QAuvpfX7KGQlg2zMg6Q", "alias": "johns-of-bleecker-street-new-york-2", "name": "John's of Bleecker Street", "image_url": "https://s3-media2.fl.yelpcdn.com/bphoto/Up7lhjRkQpl5PpmBQ0SFJQ/o.jpg", "is_closed": false, "url": "https://www.yelp.com/biz/johns-of-bleecker-street-new-york-2?adjust_creative=TqzhtA42spPSKOmzDuw9JA&utm_campaign=yelp_api_v3&utm_medium=api_v3_business_search&utm_source=TqzhtA42spPSKOmzDuw9JA", "review_count": 2836, "categories": [{"alias": "pizza", "title": "Pizza"}], "rating": 4.2, "coordinates": {"latitude": 40.73158, "longitude": -74.00332}, "transactions": ["delivery", "pickup"], "price": "$$", "location": {"address1": "278 Bleecker St", "address2": "", "address3": "", "city": "New York", "zip_code": "10014", "country": "US", "state": "NY", "display_address": ["278 Bleecker St", "New York, NY 10014"]}, "phone": "+12122431680", "display_phone": "(212) 243-1680", "distance": 4187.048650484712}, {"id": "Kh0-HmlgmVUkRxR55_Vn1g", "alias": "patsys-pizzeria-new-york-7", "name": "Patsy's Pizzeria", "image_url": "https://s3-media1.fl.yelpcdn.com/bphoto/HcdECN06ZlVpreQss5YehQ/o.jpg", "is_closed": false, "url": "https://www.yelp.com/biz/patsys-pizzeria-new-york-7?adjust_creative=TqzhtA42spPSKOmzDuw9JA&utm_campaign=yelp_api_v3&utm_medium=api_v3_business_search&utm_source=TqzhtA42spPSKOmzDuw9JA", "review_count": 981, "categories": [{"alias": "pizza", "title": "Pizza"}, {"alias": "italian", "title": "Italian"}], "rating": 3.9, "coordinates": {"latitude": 40.797157, "longitude": -73.93488}, "transactions": ["delivery"], "price": "$$", "location": {"address1": "2287 1st Ave", "address2": "", "address3": "", "city": "New York", "zip_code": "10035", "country": "US", "state": "NY", "display_address": ["2287 1st Ave", "New York, NY 10035"]}, "phone": "+12125349783", "display_phone": "(212) 534-9783", "distance": 5135.300882252375}, {"id": "4z8xLfaHh_foV5fw1rzCXQ", "alias": "slice-pizza-new-york-3", "name": "Slice Pizza", "image_url": "https://s3-media1.fl.yelpcdn.com/bphoto/PE5uiKhlTrkmh9SgHGGZmw/o.jpg", "is_closed": false, "url": "https://www.yelp.com/biz/slice-pizza-new-york-3?adjust_creative=TqzhtA42spPSKOmzDuw9JA&utm_campaign=yelp_api_v3&utm_medium=api_v3_business_search&utm_source=TqzhtA42spPSKOmzDuw9JA", "review_count": 76, "categories": [{"alias": "pizza", "title": "Pizza"}], "rating": 4.2, "coordinates": {"latitude": 40.75202, "longitude": -73.97376}, "transactions": ["delivery", "pickup"], "price": "$", "location": {"address1": "700 3rd Ave", "address2": "", "address3": null, "city": "New York", "zip_code": "10017", "country": "US", "state": "NY", "display_address": ["700 3rd Ave", "New York, NY 10017"]}, "phone": "", "display_phone": "", "distance": 869.9687755000489}, {"id": "hFeGYPt9M5dd_KXG9a_ePQ", "alias": "patsys-pizzeria-new-york-353", "name": "Patsy's Pizzeria", "image_url": "https://s3-media1.fl.yelpcdn.com/bphoto/FUfbatvnHys1W3eJe-Sx6w/o.jpg", "is_closed": false, "url": "https://www.yelp.com/biz/patsys-pizzeria-new-york-353?adjust_creative=TqzhtA42spPSKOmzDuw9JA&utm_campaign=yelp_api_v3&utm_medium=api_v3_business_search&utm_source=TqzhtA42spPSKOmzDuw9JA", "review_count": 484, "categories": [{"alias": "italian", "title": "Italian"}, {"alias": "pizza", "title": "Pizza"}, {"alias": "pastashops", "title": "Pasta Shops"}], "rating": 3.3, "coordinates": {"latitude": 40.76177, "longitude": -73.96575}, "transactions": ["delivery", "pickup"], "price": "$$", "location": {"address1": "206 E 60th St", "address2": "", "address3": "", "city": "New York", "zip_code": "10022", "country": "US", "state": "NY", "display_address": ["206 E 60th St", "New York, NY 10022"]}, "phone": "+12126889707", "display_phone": "(212) 688-9707", "distance": 434.2903878509364}, {"id": "vwsKHxKI49TIM8Ao_RTNgg", "alias": "carnegie-pizza-new-york", "name": "Carnegie Pizza", "image_url": "https://s3-media2.fl.yelpcdn.com/bphoto/YEP_3_eO6wxKb9le1xsRpQ/o.jpg", "is_closed": false, "url": "https://www.yelp.com/biz/carnegie-pizza-new-york?adjust_creative=TqzhtA42spPSKOmzDuw9JA&utm_campaign=yelp_api_v3&utm_medium=api_v3_business_search&utm_source=TqzhtA42spPSKOmzDuw9JA", "review_count": 317, "categories": [{"alias": "pizza", "title": "Pizza"}], "rating": 4.5, "coordinates": {"latitude": 40.75534, "longitude": -73.98792}, "transactions": ["delivery", "pickup"], "price": "$", "location": {"address1": "200 W 41st St", "address2": "", "address3": null, "city": "New York", "zip_code": "10036", "country": "US", "state": "NY", "display_address": ["200 W 41st St", "New York, NY 10036"]}, "phone": "+12127774141", "display_phone": "(212) 777-4141", "distance": 1603.002303559172}, {"id": "AoezuAP-QOH6JZZOmyzJLg", "alias": "marinara-pizza-new-york-11", "name": "Marinara Pizza", "image_url": "https://s3-media3.fl.yelpcdn.com/bphoto/pGUFhd1_YdD2tPE2GBolrg/o.jpg", "is_closed": false, "url": "https://www.yelp.com/biz/marinara-pizza-new-york-11?adjust_creative=TqzhtA42spPSKOmzDuw9JA&utm_campaign=yelp_api_v3&utm_medium=api_v3_business_search&utm_source=TqzhtA42spPSKOmzDuw9JA", "review_count": 357, "categories": [{"alias": "pizza", "title": "Pizza"}, {"alias": "italian", "title": "Italian"}], "rating": 3.8, "coordinates": {"latitude": 40.7826, "longitude": -73.95351}, "transactions": ["delivery", "pickup"], "price": "$", "location": {"address1": "1376 Lexington Ave", "address2": null, "address3": "", "city": "New York", "zip_code": "10128", "country": "US", "state": "NY", "display_address": ["1376 Lexington Ave", "New York, NY 10128"]}, "phone": "+16465595100", "display_phone": "(646) 559-5100", "distance": 2927.644137171024}, {"id": "tJZUd3IkPcH4u0ATY2lTww", "alias": "pda-slice-shop-new-york-2", "name": "PDA Slice Shop", "image_url": "https://s3-media3.fl.yelpcdn.com/bphoto/ssFqoDKOjmRqhwnYnMzGGQ/o.jpg", "is_closed": false, "url": "https://www.yelp.com/biz/pda-slice-shop-new-york-2?adjust_creative=TqzhtA42spPSKOmzDuw9JA&utm_campaign=yelp_api_v3&utm_medium=api_v3_business_search&utm_source=TqzhtA42spPSKOmzDuw9JA", "review_count": 22, "categories": [{"alias": "pizza", "title": "Pizza"}], "rating": 4.0, "coordinates": {"latitude": 40.758649580203006, "longitude": -73.97044889325214}, "transactions": ["delivery", "pickup"], "location": {"address1": "601 Lexington Ave", "address2": null, "address3": "The Hugh", "city": "New York", "zip_code": "10022", "country": "US", "state": "NY", "display_address": ["601 Lexington Ave", "The Hugh", "New York, NY 10022"]}, "phone": "+16466304408", "display_phone": "(646) 630-4408", "distance": 94.02069395762372}, {"id": "c3D2ckzacnPtdGIM8tb-_w", "alias": "b-side-pizza-and-wine-bar-new-york", "name": "B Side Pizza & Wine Bar", "image_url": "https://s3-media1.fl.yelpcdn.com/bphoto/q-iMC83vudo80YLmqv8aHg/o.jpg", "is_closed": false, "url": "https://www.yelp.com/biz/b-side-pizza-and-wine-bar-new-york?adjust_creative=TqzhtA42spPSKOmzDuw9JA&utm_campaign=yelp_api_v3&utm_medium=api_v3_business_search&utm_source=TqzhtA42spPSKOmzDuw9JA", "review_count": 1347, "categories": [{"alias": "pizza", "title": "Pizza"}, {"alias": "wine_bars", "title": "Wine Bars"}, {"alias": "cocktailbars", "title": "Cocktail Bars"}], "rating": 4.5, "coordinates": {"latitude": 40.76388, "longitude": -73.98821}, "transactions": ["delivery", "pickup"], "price": "$$", "location": {"address1": "370 W 51st St", "address2": null, "address3": "", "city": "New York", "zip_code": "10019", "country": "US", "state": "NY", "display_address": ["370 W 51st St", "New York, NY 10019"]}, "phone": "+16466797225", "display_phone": "(646) 679-7225", "distance": 1654.4823157538337}, {"id": "WIhm0W9197f_rRtDziq5qQ", "alias": "lombardis-pizza-new-york-4", "name": "Lombardi's Pizza", "image_url": "https://s3-media1.fl.yelpcdn.com/bphoto/lBq1IBr5ZEI3nJBCwHYxcg/o.jpg", "is_closed": false, "url": "https://www.yelp.com/biz/lombardis-pizza-new-york-4?adjust_creative=TqzhtA42spPSKOmzDuw9JA&utm_campaign=yelp_api_v3&utm_medium=api_v3_business_search&utm_source=TqzhtA42spPSKOmzDuw9JA", "review_count": 6674, "categories": [{"alias": "pizza", "title": "Pizza"}], "rating": 3.8, "coordinates": {"latitude": 40.7215934960083, "longitude": -73.9955956044561}, "transactions": ["delivery", "pickup"], "price": "$$", "location": {"address1": "32 Spring St", "address2": "", "address3": "", "city": "New York", "zip_code": "10012", "country": "US", "state": "NY", "display_address": ["32 Spring St", "New York, NY 10012"]}, "phone": "+12129417994", "display_phone": "(212) 941-7994", "distance": 4718.99145813924}, {"id": "kVVjtVwlKwxKp4E345sdIw", "alias": "goodfellas-pizzeria-of-lic-long-island-city-2", "name": "Goodfellas Pizzeria of LIC", "image_url": "https://s3-media2.fl.yelpcdn.com/bphoto/thGonacC2LZUXqVNnB9Wpw/o.jpg", "is_closed": false, "url": "https://www.yelp.com/biz/goodfellas-pizzeria-of-lic-long-island-city-2?adjust_creative=TqzhtA42spPSKOmzDuw9JA&utm_campaign=yelp_api_v3&utm_medium=api_v3_business_search&utm_source=TqzhtA42spPSKOmzDuw9JA", "review_count": 91, "categories": [{"alias": "pizza", "title": "Pizza"}], "rating": 4.3, "coordinates": {"latitude": 40.75341267837556, "longitude": -73.93712752116163}, "transactions": ["delivery", "pickup"], "price": "$", "location": {"address1": "25-19 40th Ave", "address2": "", "address3": null, "city": "Long Island City", "zip_code": "11101", "country": "US", "state": "NY", "display_address": ["25-19 40th Ave", "Long Island City, NY 11101"]}, "phone": "+17184721932", "display_phone": "(718) 472-1932", "distance": 2807.041362300401}, {"id": "peV8B-MMMZb1mrC9r6rfAA", "alias": "lucia-of-soho-new-york", "name": "Lucia of Soho", "image_url": "https://s3-media4.fl.yelpcdn.com/bphoto/ciK5mi9B4YZLzMgbrb1eUg/o.jpg", "is_closed": false, "url": "https://www.yelp.com/biz/lucia-of-soho-new-york?adjust_creative=TqzhtA42spPSKOmzDuw9JA&utm_campaign=yelp_api_v3&utm_medium=api_v3_business_search&utm_source=TqzhtA42spPSKOmzDuw9JA", "review_count": 100, "categories": [{"alias": "pizza", "title": "Pizza"}], "rating": 4.5, "coordinates": {"latitude": 40.721416405112784, "longitude": -74.0043748}, "transactions": ["delivery", "pickup"], "location": {"address1": "375 Canal St", "address2": null, "address3": "", "city": "New York", "zip_code": "10013", "country": "US", "state": "NY", "display_address": ["375 Canal St", "New York, NY 10013"]}, "phone": "+19179652900", "display_phone": "(917) 965-2900", "distance": 5120.936130362317}, {"id": "oJ_XSPZFpvIt6rvheSQl7A", "alias": "bleecker-street-pizza-new-york", "name": "Bleecker Street Pizza", "image_url": "https://s3-media1.fl.yelpcdn.com/bphoto/uScs5HVlHXaZMKIroDaHSg/o.jpg", "is_closed": false, "url": "https://www.yelp.com/biz/bleecker-street-pizza-new-york?adjust_creative=TqzhtA42spPSKOmzDuw9JA&utm_campaign=yelp_api_v3&utm_medium=api_v3_business_search&utm_source=TqzhtA42spPSKOmzDuw9JA", "review_count": 3116, "categories": [{"alias": "pizza", "title": "Pizza"}, {"alias": "italian", "title": "Italian"}], "rating": 4.2, "coordinates": {"latitude": 40.7320627016512, "longitude": -74.0036552270137}, "transactions": ["delivery", "pickup"], "price": "$", "location": {"address1": "69 7th Ave S", "address2": null, "address3": "", "city": "New York", "zip_code": "10014", "country": "US", "state": "NY", "display_address": ["69 7th Ave S", "New York, NY 10014"]}, "phone": "+12129244466", "display_phone": "(212) 924-4466", "distance": 4136.735283599604}, {"id": "uc5qQMzs96rzjK27epDCug", "alias": "joes-pizza-new-york-4", "name": "Joe's Pizza", "image_url": "https://s3-media3.fl.yelpcdn.com/bphoto/FKjd9RGuNH-ixnd7AQxj0g/o.jpg", "is_closed": false, "url": "https://www.yelp.com/biz/joes-pizza-new-york-4?adjust_creative=TqzhtA42spPSKOmzDuw9JA&utm_campaign=yelp_api_v3&utm_medium=api_v3_business_search&utm_source=TqzhtA42spPSKOmzDuw9JA", "review_count": 3195, "categories": [{"alias": "pizza", "title": "Pizza"}], "rating": 4.1, "coordinates": {"latitude": 40.73060076, "longitude": -74.00215997}, "transactions": ["delivery"], "price": "$", "location": {"address1": "7 Carmine St", "address2": "", "address3": "", "city": "New York", "zip_code": "10014", "country": "US", "state": "NY", "display_address": ["7 Carmine St", "New York, NY 10014"]}, "phone": "+12123661182", "display_phone": "(212) 366-1182", "distance": 4198.930007407867}, {"id": "MwcRbM6lS6_8N67LmyBELA", "alias": "1-50-fresh-pizza-new-york-7", "name": "$1.50 Fresh Pizza", "image_url": "https://s3-media3.fl.yelpcdn.com/bphoto/SKPNh5vaBq_3uTJNOgrPWw/o.jpg", "is_closed": false, "url": "https://www.yelp.com/biz/1-50-fresh-pizza-new-york-7?adjust_creative=TqzhtA42spPSKOmzDuw9JA&utm_campaign=yelp_api_v3&utm_medium=api_v3_business_search&utm_source=TqzhtA42spPSKOmzDuw9JA", "review_count": 749, "categories": [{"alias": "pizza", "title": "Pizza"}], "rating": 4.1, "coordinates": {"latitude": 40.76458, "longitude": -73.98247}, "transactions": ["pickup", "delivery"], "price": "$", "location": {"address1": "1723 Broadway", "address2": "", "address3": "", "city": "New York", "zip_code": "10019", "country": "US", "state": "NY", "display_address": ["1723 Broadway", "New York, NY 10019"]}, "phone": "+12122452155", "display_phone": "(212) 245-2155", "distance": 1247.4176491547526}, {"id": "IbTOahV7PjkYwVDsGlfseA", "alias": "margari-pizza-new-york", "name": "Margari Pizza", "image_url": "https://s3-media2.fl.yelpcdn.com/bphoto/_Pd38AaNNxrtHDmTVpCGQw/o.jpg", "is_closed": false, "url": "https://www.yelp.com/biz/margari-pizza-new-york?adjust_creative=TqzhtA42spPSKOmzDuw9JA&utm_campaign=yelp_api_v3&utm_medium=api_v3_business_search&utm_source=TqzhtA42spPSKOmzDuw9JA", "review_count": 55, "categories": [{"alias": "pizza", "title": "Pizza"}, {"alias": "italian", "title": "Italian"}, {"alias": "catering", "title": "Caterers"}], "rating": 4.1, "coordinates": {"latitude": 40.758785, "longitude": -73.965338}, "transactions": ["pickup", "delivery"], "location": {"address1": "1072 2nd Ave", "address2": null, "address3": "", "city": "New York", "zip_code": "10022", "country": "US", "state": "NY", "display_address": ["1072 2nd Ave", "New York, NY 10022"]}, "phone": "+12129061929", "display_phone": "(212) 906-1929", "distance": 358.2407695113611}, {"id": "CYYLEipRFmr73Hz6XNEzoQ", "alias": "little-italy-pizza-new-york-5", "name": "Little Italy Pizza", "image_url": "https://s3-media2.fl.yelpcdn.com/bphoto/nirYFJlU4Nf_d99wU4K_ww/o.jpg", "is_closed": false, "url": "https://www.yelp.com/biz/little-italy-pizza-new-york-5?adjust_creative=TqzhtA42spPSKOmzDuw9JA&utm_campaign=yelp_api_v3&utm_medium=api_v3_business_search&utm_source=TqzhtA42spPSKOmzDuw9JA", "review_count": 660, "categories": [{"alias": "pizza", "title": "Pizza"}, {"alias": "sandwiches", "title": "Sandwiches"}, {"alias": "pastashops", "title": "Pasta Shops"}], "rating": 4.1, "coordinates": {"latitude": 40.756482, "longitude": -73.981484}, "transactions": ["pickup", "delivery"], "price": "$", "location": {"address1": "55 W 45th St", "address2": "", "address3": "", "city": "New York", "zip_code": "10036", "country": "US", "state": "NY", "display_address": ["55 W 45th St", "New York, NY 10036"]}, "phone": "+12127307575", "display_phone": "(212) 730-7575", "distance": 1046.880841832898}, {"id": "r1PWMTbFXBmEhi0scGPf3w", "alias": "aces-pizza-brooklyn", "name": "Ace's Pizza", "image_url": "https://s3-media2.fl.yelpcdn.com/bphoto/id-UXjLag2J47O_JkICU6A/o.jpg", "is_closed": false, "url": "https://www.yelp.com/biz/aces-pizza-brooklyn?adjust_creative=TqzhtA42spPSKOmzDuw9JA&utm_campaign=yelp_api_v3&utm_medium=api_v3_business_search&utm_source=TqzhtA42spPSKOmzDuw9JA", "review_count": 212, "categories": [{"alias": "pizza", "title": "Pizza"}, {"alias": "chicken_wings", "title": "Chicken Wings"}], "rating": 4.7, "coordinates": {"latitude": 40.71505, "longitude": -73.958365}, "transactions": ["pickup", "delivery"], "price": "$$", "location": {"address1": "637 Driggs Ave", "address2": "", "address3": null, "city": "Brooklyn", "zip_code": "11211", "country": "US", "state": "NY", "display_address": ["637 Driggs Ave", "Brooklyn, NY 11211"]}, "phone": "+13477254366", "display_phone": "(347) 725-4366", "distance": 4994.734965719598}, {"id": "V7z1ZkTOtV-dNOKhZsAlMw", "alias": "patsys-pizzeria-new-york-10", "name": "Patsy's Pizzeria", "image_url": "https://s3-media3.fl.yelpcdn.com/bphoto/yI-KXgfh1swwRDybZMxROQ/o.jpg", "is_closed": false, "url": "https://www.yelp.com/biz/patsys-pizzeria-new-york-10?adjust_creative=TqzhtA42spPSKOmzDuw9JA&utm_campaign=yelp_api_v3&utm_medium=api_v3_business_search&utm_source=TqzhtA42spPSKOmzDuw9JA", "review_count": 362, "categories": [{"alias": "italian", "title": "Italian"}, {"alias": "pizza", "title": "Pizza"}], "rating": 3.5, "coordinates": {"latitude": 40.750427, "longitude": -73.972129}, "transactions": ["pickup", "delivery"], "price": "$$", "location": {"address1": "801 2nd Ave", "address2": "", "address3": "", "city": "New York", "zip_code": "10017", "country": "US", "state": "NY", "display_address": ["801 2nd Ave", "New York, NY 10017"]}, "phone": "+12128789600", "display_phone": "(212) 878-9600", "distance": 993.6626222396773}, {"id": "AHDlsNh8fODK9miC3zv3Zg", "alias": "unregular-pizza-new-york-2", "name": "Unregular Pizza", "image_url": "https://s3-media2.fl.yelpcdn.com/bphoto/cgtkUZBZThCsb6-PtnvvpQ/o.jpg", "is_closed": false, "url": "https://www.yelp.com/biz/unregular-pizza-new-york-2?adjust_creative=TqzhtA42spPSKOmzDuw9JA&utm_campaign=yelp_api_v3&utm_medium=api_v3_business_search&utm_source=TqzhtA42spPSKOmzDuw9JA", "review_count": 285, "categories": [{"alias": "pizza", "title": "Pizza"}, {"alias": "italian", "title": "Italian"}, {"alias": "sandwiches", "title": "Sandwiches"}], "rating": 4.4, "coordinates": {"latitude": 40.73368221456629, "longitude": -73.98959979038267}, "transactions": ["pickup", "delivery"], "price": "$$", "location": {"address1": "135 4th Ave", "address2": null, "address3": "", "city": "New York", "zip_code": "10003", "country": "US", "state": "NY", "display_address": ["135 4th Ave", "New York, NY 10003"]}, "phone": "+16466094699", "display_phone": "(646) 609-4699", "distance": 3298.6585271706585}, {"id": "n_0FM-6aEyjTMDcz5PKEfQ", "alias": "koronet-pizza-new-york-6", "name": "Koronet Pizza", "image_url": "https://s3-media1.fl.yelpcdn.com/bphoto/_VbF2JpCReM1-xYn5QAxGw/o.jpg", "is_closed": false, "url": "https://www.yelp.com/biz/koronet-pizza-new-york-6?adjust_creative=TqzhtA42spPSKOmzDuw9JA&utm_campaign=yelp_api_v3&utm_medium=api_v3_business_search&utm_source=TqzhtA42spPSKOmzDuw9JA", "review_count": 86, "categories": [{"alias": "pizza", "title": "Pizza"}], "rating": 4.2, "coordinates": {"latitude": 40.77408, "longitude": -73.95969}, "transactions": ["pickup", "delivery"], "location": {"address1": "1110 Lexington Ave", "address2": "", "address3": null, "city": "New York", "zip_code": "10075", "country": "US", "state": "NY", "display_address": ["1110 Lexington Ave", "New York, NY 10075"]}, "phone": "+16467670424", "display_phone": "(646) 767-0424", "distance": 1846.0689277006395}, {"id": "t2Is1tWxGyZZ2nwg1kwAdg", "alias": "baggios-pizzeria-new-york", "name": "Baggios Pizzeria", "image_url": "https://s3-media3.fl.yelpcdn.com/bphoto/H-uYIV2mp4Rv45YJKORs0g/o.jpg", "is_closed": false, "url": "https://www.yelp.com/biz/baggios-pizzeria-new-york?adjust_creative=TqzhtA42spPSKOmzDuw9JA&utm_campaign=yelp_api_v3&utm_medium=api_v3_business_search&utm_source=TqzhtA42spPSKOmzDuw9JA", "review_count": 27, "categories": [{"alias": "pizza", "title": "Pizza"}, {"alias": "sandwiches", "title": "Sandwiches"}], "rating": 4.5, "coordinates": {"latitude": 40.74215, "longitude": -73.99737}, "transactions": ["pickup", "delivery"], "location": {"address1": "162 7th Ave", "address2": "", "address3": null, "city": "New York", "zip_code": "10011", "country": "US", "state": "NY", "display_address": ["162 7th Ave", "New York, NY 10011"]}, "phone": "+12123370505", "display_phone": "(212) 337-0505", "distance": 3011.9984684637193}, {"id": "zOmgO8Di9Ui2bQHqSarUKg", "alias": "johns-of-times-square-new-york-2", "name": "John's of Times Square", "image_url": "https://s3-media3.fl.yelpcdn.com/bphoto/ZRcz7SP7H_LfJwz0527Wvg/o.jpg", "is_closed": false, "url": "https://www.yelp.com/biz/johns-of-times-square-new-york-2?adjust_creative=TqzhtA42spPSKOmzDuw9JA&utm_campaign=yelp_api_v3&utm_medium=api_v3_business_search&utm_source=TqzhtA42spPSKOmzDuw9JA", "review_count": 2628, "categories": [{"alias": "pizza", "title": "Pizza"}, {"alias": "italian", "title": "Italian"}, {"alias": "cocktailbars", "title": "Cocktail Bars"}], "rating": 3.8, "coordinates": {"latitude": 40.75823, "longitude": -73.98836}, "transactions": ["pickup", "delivery"], "price": "$$", "location": {"address1": "260 W 44th St", "address2": "", "address3": "", "city": "New York", "zip_code": "10036", "country": "US", "state": "NY", "display_address": ["260 W 44th St", "New York, NY 10036"]}, "phone": "+12123917560", "display_phone": "(212) 391-7560", "distance": 1586.552921765873}, {"id": "06tnwnEQM2j9A6dC3HC_TQ", "alias": "capizzi-new-york", "name": "Capizzi", "image_url": "https://s3-media3.fl.yelpcdn.com/bphoto/PRuOof2CCvXqs5rXC_uH0g/o.jpg", "is_closed": false, "url": "https://www.yelp.com/biz/capizzi-new-york?adjust_creative=TqzhtA42spPSKOmzDuw9JA&utm_campaign=yelp_api_v3&utm_medium=api_v3_business_search&utm_source=TqzhtA42spPSKOmzDuw9JA", "review_count": 938, "categories": [{"alias": "pizza", "title": "Pizza"}, {"alias": "desserts", "title": "Desserts"}, {"alias": "beer_and_wine", "title": "Beer, Wine & Spirits"}], "rating": 4.2, "coordinates": {"latitude": 40.75744, "longitude": -73.99357}, "transactions": ["pickup", "delivery"], "price": "$$", "location": {"address1": "547 9th Ave", "address2": "", "address3": "", "city": "New York", "zip_code": "10018", "country": "US", "state": "NY", "display_address": ["547 9th Ave", "New York, NY 10018"]}, "phone": "+16464765120", "display_phone": "(646) 476-5120", "distance": 2036.5527468132825}, {"id": "8NrrPoJKOQQFTMrkMzGILw", "alias": "upside-pizza-new-york-3", "name": "Upside Pizza", "image_url": "https://s3-media2.fl.yelpcdn.com/bphoto/AgGmKznofPu6pSXLUzwWUQ/o.jpg", "is_closed": false, "url": "https://www.yelp.com/biz/upside-pizza-new-york-3?adjust_creative=TqzhtA42spPSKOmzDuw9JA&utm_campaign=yelp_api_v3&utm_medium=api_v3_business_search&utm_source=TqzhtA42spPSKOmzDuw9JA", "review_count": 75, "categories": [{"alias": "pizza", "title": "Pizza"}], "rating": 4.1, "coordinates": {"latitude": 40.75157, "longitude": -73.98059}, "transactions": ["pickup", "delivery"], "price": "$", "location": {"address1": "20 E 40th St", "address2": "", "address3": null, "city": "New York", "zip_code": "10016", "country": "US", "state": "NY", "display_address": ["20 E 40th St", "New York, NY 10016"]}, "phone": "", "display_phone": "", "distance": 1261.8360568168857}, {"id": "0UdC0VYX6aAvLiOcpR4MVQ", "alias": "joes-pizza-new-york-7", "name": "Joe's Pizza", "image_url": "https://s3-media2.fl.yelpcdn.com/bphoto/QXu6RGXGrtRWssVmFE7KpQ/o.jpg", "is_closed": false, "url": "https://www.yelp.com/biz/joes-pizza-new-york-7?adjust_creative=TqzhtA42spPSKOmzDuw9JA&utm_campaign=yelp_api_v3&utm_medium=api_v3_business_search&utm_source=TqzhtA42spPSKOmzDuw9JA", "review_count": 1118, "categories": [{"alias": "pizza", "title": "Pizza"}], "rating": 4.1, "coordinates": {"latitude": 40.73331, "longitude": -73.98763}, "transactions": ["pickup", "delivery"], "price": "$", "location": {"address1": "150 E 14th St", "address2": "", "address3": "", "city": "New York", "zip_code": "10003", "country": "US", "state": "NY", "display_address": ["150 E 14th St", "New York, NY 10003"]}, "phone": "+12123889474", "display_phone": "(212) 388-9474", "distance": 3262.132779829498}, {"id": "r81QIQHYrAJkOcw0rjXwyw", "alias": "village-square-pizza-upper-east-side-new-york-2", "name": "Village Square Pizza - Upper East Side", "image_url": "https://s3-media1.fl.yelpcdn.com/bphoto/xvt1p2l3-v2z6UV-H3bbFA/o.jpg", "is_closed": false, "url": "https://www.yelp.com/biz/village-square-pizza-upper-east-side-new-york-2?adjust_creative=TqzhtA42spPSKOmzDuw9JA&utm_campaign=yelp_api_v3&utm_medium=api_v3_business_search&utm_source=TqzhtA42spPSKOmzDuw9JA", "review_count": 33, "categories": [{"alias": "pizza", "title": "Pizza"}], "rating": 4.0, "coordinates": {"latitude": 40.77657, "longitude": -73.95789}, "transactions": ["pickup", "delivery"], "location": {"address1": "1200 Lexington Ave", "address2": "", "address3": null, "city": "New York", "zip_code": "10028", "country": "US", "state": "NY", "display_address": ["1200 Lexington Ave", "New York, NY 10028"]}, "phone": "+19174091272", "display_phone": "(917) 409-1272", "distance": 2174.0434150075857}, {"id": "LrhaNrj_-eOXWOoHSUFiBg", "alias": "marinara-pizza-midtown-east-new-york-6", "name": "Marinara Pizza - Midtown East", "image_url": "https://s3-media3.fl.yelpcdn.com/bphoto/rJNDPv5AJm8MC1Ay56AROA/o.jpg", "is_closed": false, "url": "https://www.yelp.com/biz/marinara-pizza-midtown-east-new-york-6?adjust_creative=TqzhtA42spPSKOmzDuw9JA&utm_campaign=yelp_api_v3&utm_medium=api_v3_business_search&utm_source=TqzhtA42spPSKOmzDuw9JA", "review_count": 151, "categories": [{"alias": "pizza", "title": "Pizza"}, {"alias": "salad", "title": "Salad"}, {"alias": "italian", "title": "Italian"}], "rating": 3.6, "coordinates": {"latitude": 40.75656, "longitude": -73.96443}, "transactions": ["pickup", "delivery"], "price": "$", "location": {"address1": "985 1st Ave", "address2": "", "address3": null, "city": "New York", "zip_code": "10022", "country": "US", "state": "NY", "display_address": ["985 1st Ave", "New York, NY 10022"]}, "phone": "+19172612147", "display_phone": "(917) 261-2147", "distance": 514.3371583586716}, {"id": "4W3HMAo4NRG4UiimF2aHEg", "alias": "pizza-spot-hells-kitchen-new-york", "name": "Pizza Spot Hells Kitchen", "image_url": "https://s3-media2.fl.yelpcdn.com/bphoto/3aS3GaVD6nfuavytAkSCRw/o.jpg", "is_closed": false, "url": "https://www.yelp.com/biz/pizza-spot-hells-kitchen-new-york?adjust_creative=TqzhtA42spPSKOmzDuw9JA&utm_campaign=yelp_api_v3&utm_medium=api_v3_business_search&utm_source=TqzhtA42spPSKOmzDuw9JA", "review_count": 7, "categories": [{"alias": "pizza", "title": "Pizza"}, {"alias": "italian", "title": "Italian"}, {"alias": "chicken_wings", "title": "Chicken Wings"}], "rating": 4.3, "coordinates": {"latitude": 40.76543996287274, "longitude": -73.9909294}, "transactions": ["pickup", "delivery"], "location": {"address1": "754 10th Ave", "address2": null, "address3": "", "city": "New York", "zip_code": "10019", "country": "US", "state": "NY", "display_address": ["754 10th Ave", "New York, NY 10019"]}, "phone": "+19179928157", "display_phone": "(917) 992-8157", "distance": 1928.7994200107123}, {"id": "Q9F2ocrmYuGt1yn3M7MOBw", "alias": "lucali-brooklyn-3", "name": "Lucali", "image_url": "https://s3-media1.fl.yelpcdn.com/bphoto/rMlNCZkNG2Nizhp8aBYKng/o.jpg", "is_closed": false, "url": "https://www.yelp.com/biz/lucali-brooklyn-3?adjust_creative=TqzhtA42spPSKOmzDuw9JA&utm_campaign=yelp_api_v3&utm_medium=api_v3_business_search&utm_source=TqzhtA42spPSKOmzDuw9JA", "review_count": 2084, "categories": [{"alias": "pizza", "title": "Pizza"}], "rating": 4.2, "coordinates": {"latitude": 40.681840746711224, "longitude": -74.0003327}, "transactions": ["delivery"], "price": "$$", "location": {"address1": "575 Henry St", "address2": null, "address3": "", "city": "Brooklyn", "zip_code": "11231", "country": "US", "state": "NY", "display_address": ["575 Henry St", "Brooklyn, NY 11231"]}, "phone": "+17188584086", "display_phone": "(718) 858-4086", "distance": 8981.342283499152}, {"id": "HFybdvvjJtmungN1wCowwQ", "alias": "previti-pizza-34th-new-york", "name": "Previti Pizza 34th", "image_url": "https://s3-media3.fl.yelpcdn.com/bphoto/WSjRtu8X0PtY6Fl6xc3E_Q/o.jpg", "is_closed": false, "url": "https://www.yelp.com/biz/previti-pizza-34th-new-york?adjust_creative=TqzhtA42spPSKOmzDuw9JA&utm_campaign=yelp_api_v3&utm_medium=api_v3_business_search&utm_source=TqzhtA42spPSKOmzDuw9JA", "review_count": 28, "categories": [{"alias": "pizza", "title": "Pizza"}, {"alias": "salad", "title": "Salad"}, {"alias": "chicken_wings", "title": "Chicken Wings"}], "rating": 4.6, "coordinates": {"latitude": 40.74382, "longitude": -73.97401}, "transactions": ["pickup", "delivery"], "location": {"address1": "344 E 34th St", "address2": null, "address3": "", "city": "New York", "zip_code": "10016", "country": "US", "state": "NY", "display_address": ["344 E 34th St", "New York, NY 10016"]}, "phone": "+12126796161", "display_phone": "(212) 679-6161", "distance": 1749.2317045671318}, {"id": "16ZnHpuaaBt92XWeJHCC5A", "alias": "olio-e-pi\u00f9-new-york-7", "name": "Olio e Pi\u00f9", "image_url": "https://s3-media4.fl.yelpcdn.com/bphoto/CUpPgz_Q4QBHxxxxDJJTTA/o.jpg", "is_closed": false, "url": "https://www.yelp.com/biz/olio-e-pi%C3%B9-new-york-7?adjust_creative=TqzhtA42spPSKOmzDuw9JA&utm_campaign=yelp_api_v3&utm_medium=api_v3_business_search&utm_source=TqzhtA42spPSKOmzDuw9JA", "review_count": 5775, "categories": [{"alias": "pizza", "title": "Pizza"}, {"alias": "italian", "title": "Italian"}, {"alias": "cocktailbars", "title": "Cocktail Bars"}], "rating": 4.5, "coordinates": {"latitude": 40.73406231935954, "longitude": -73.99999980859876}, "transactions": ["delivery", "pickup"], "price": "$$", "location": {"address1": "3 Greenwich Ave", "address2": null, "address3": "", "city": "New York", "zip_code": "10014", "country": "US", "state": "NY", "display_address": ["3 Greenwich Ave", "New York, NY 10014"]}, "phone": "+12122436546", "display_phone": "(212) 243-6546", "distance": 3790.3690267454826}, {"id": "VP3-iMnKK_TaHDuy6mxTzA", "alias": "scotts-pizza-tours-new-york", "name": "Scott's Pizza Tours", "image_url": "https://s3-media3.fl.yelpcdn.com/bphoto/nhfA9SXPjeX9H4KfjTcn9w/o.jpg", "is_closed": false, "url": "https://www.yelp.com/biz/scotts-pizza-tours-new-york?adjust_creative=TqzhtA42spPSKOmzDuw9JA&utm_campaign=yelp_api_v3&utm_medium=api_v3_business_search&utm_source=TqzhtA42spPSKOmzDuw9JA", "review_count": 385, "categories": [{"alias": "pizza", "title": "Pizza"}, {"alias": "foodtours", "title": "Food Tours"}, {"alias": "walkingtours", "title": "Walking Tours"}], "rating": 4.8, "coordinates": {"latitude": 40.750244140625, "longitude": -73.9970245361328}, "transactions": [], "price": "$$", "location": {"address1": "", "address2": "", "address3": "", "city": "New York", "zip_code": "10001", "country": "US", "state": "NY", "display_address": ["New York, NY 10001"]}, "phone": "", "display_phone": "", "distance": 2565.971867423637}, {"id": "gkoAJruMnKVuoKVqorgFCA", "alias": "trovo-nyc-thin-crust-pizza-new-york", "name": "TROVO NYC Thin Crust Pizza", "image_url": "https://s3-media2.fl.yelpcdn.com/bphoto/UZBaD0IWDowUe9Kol4EDNg/o.jpg", "is_closed": false, "url": "https://www.yelp.com/biz/trovo-nyc-thin-crust-pizza-new-york?adjust_creative=TqzhtA42spPSKOmzDuw9JA&utm_campaign=yelp_api_v3&utm_medium=api_v3_business_search&utm_source=TqzhtA42spPSKOmzDuw9JA", "review_count": 12, "categories": [{"alias": "pizza", "title": "Pizza"}, {"alias": "italian", "title": "Italian"}, {"alias": "salad", "title": "Salad"}], "rating": 3.3, "coordinates": {"latitude": 40.758818, "longitude": -73.968966}, "transactions": ["pickup", "delivery"], "location": {"address1": "906 3rd Ave", "address2": "", "address3": null, "city": "New York", "zip_code": "10022", "country": "US", "state": "NY", "display_address": ["906 3rd Ave", "New York, NY 10022"]}, "phone": "+19174512220", "display_phone": "(917) 451-2220", "distance": 61.469751144698556}, {"id": "Nnbl4YIEHpuOnQj6zlK0UQ", "alias": "rosas-pizza-new-york-7", "name": "Rosa's Pizza", "image_url": "https://s3-media1.fl.yelpcdn.com/bphoto/RPLJP7p2-BltCsruBXD5GQ/o.jpg", "is_closed": false, "url": "https://www.yelp.com/biz/rosas-pizza-new-york-7?adjust_creative=TqzhtA42spPSKOmzDuw9JA&utm_campaign=yelp_api_v3&utm_medium=api_v3_business_search&utm_source=TqzhtA42spPSKOmzDuw9JA", "review_count": 7, "categories": [{"alias": "pizza", "title": "Pizza"}, {"alias": "italian", "title": "Italian"}], "rating": 4.3, "coordinates": {"latitude": 40.74641219234452, "longitude": -73.993616}, "transactions": ["pickup", "delivery"], "location": {"address1": "299 7th Ave", "address2": "", "address3": null, "city": "New York", "zip_code": "10001", "country": "US", "state": "NY", "display_address": ["299 7th Ave", "New York, NY 10001"]}, "phone": "+12127413560", "display_phone": "(212) 741-3560", "distance": 2472.8826749172736}, {"id": "J38XGzriEkMsDfCMt6et_g", "alias": "vezzo-nycthincrust-pizza-new-york-2", "name": "VEZZO NYCThinCrust Pizza", "image_url": "https://s3-media2.fl.yelpcdn.com/bphoto/yNd2PGgQHAfGbjWwevbfHw/o.jpg", "is_closed": false, "url": "https://www.yelp.com/biz/vezzo-nycthincrust-pizza-new-york-2?adjust_creative=TqzhtA42spPSKOmzDuw9JA&utm_campaign=yelp_api_v3&utm_medium=api_v3_business_search&utm_source=TqzhtA42spPSKOmzDuw9JA", "review_count": 1436, "categories": [{"alias": "pizza", "title": "Pizza"}, {"alias": "italian", "title": "Italian"}, {"alias": "sandwiches", "title": "Sandwiches"}], "rating": 4.0, "coordinates": {"latitude": 40.744435447210506, "longitude": -73.9814189}, "transactions": ["pickup", "delivery"], "price": "$$", "location": {"address1": "178 Lexington Ave", "address2": null, "address3": "", "city": "New York", "zip_code": "10016", "country": "US", "state": "NY", "display_address": ["178 Lexington Ave", "New York, NY 10016"]}, "phone": "+12128398300", "display_phone": "(212) 839-8300", "distance": 1918.751667516298}, {"id": "0ROpM3UcZhprN6dhwK2Hsw", "alias": "joe-and-pats-pizzeria-new-york", "name": "Joe & Pat's Pizzeria", "image_url": "https://s3-media1.fl.yelpcdn.com/bphoto/bvllEgvnc76ZTXO6wixbpw/o.jpg", "is_closed": false, "url": "https://www.yelp.com/biz/joe-and-pats-pizzeria-new-york?adjust_creative=TqzhtA42spPSKOmzDuw9JA&utm_campaign=yelp_api_v3&utm_medium=api_v3_business_search&utm_source=TqzhtA42spPSKOmzDuw9JA", "review_count": 335, "categories": [{"alias": "pizza", "title": "Pizza"}, {"alias": "italian", "title": "Italian"}, {"alias": "wine_bars", "title": "Wine Bars"}], "rating": 4.0, "coordinates": {"latitude": 40.72893249092784, "longitude": -73.98411228635385}, "transactions": ["restaurant_reservation", "pickup", "delivery"], "price": "$$", "location": {"address1": "168 1st Ave", "address2": "", "address3": null, "city": "New York", "zip_code": "10009", "country": "US", "state": "NY", "display_address": ["168 1st Ave", "New York, NY 10009"]}, "phone": "+12126774992", "display_phone": "(212) 677-4992", "distance": 3578.875547045186}, {"id": "m3PS0tIaa0ChcP8Y5S-DrQ", "alias": "mamas-too-new-york", "name": "MAMA'S TOO!", "image_url": "https://s3-media2.fl.yelpcdn.com/bphoto/tDNFFcn_vIhGKlfFbh-v5w/o.jpg", "is_closed": false, "url": "https://www.yelp.com/biz/mamas-too-new-york?adjust_creative=TqzhtA42spPSKOmzDuw9JA&utm_campaign=yelp_api_v3&utm_medium=api_v3_business_search&utm_source=TqzhtA42spPSKOmzDuw9JA", "review_count": 816, "categories": [{"alias": "pizza", "title": "Pizza"}, {"alias": "italian", "title": "Italian"}], "rating": 3.6, "coordinates": {"latitude": 40.80084, "longitude": -73.96766}, "transactions": ["delivery"], "price": "$$", "location": {"address1": "2750 Broadway", "address2": "", "address3": null, "city": "New York", "zip_code": "10025", "country": "US", "state": "NY", "display_address": ["2750 Broadway", "New York, NY 10025"]}, "phone": "+12125107256", "display_phone": "(212) 510-7256", "distance": 4633.448221914774}, {"id": "1To57srDy-cVko5QWGcogA", "alias": "sacco-pizza-new-york", "name": "Sacco Pizza", "image_url": "https://s3-media4.fl.yelpcdn.com/bphoto/GlzimGhykrTz9sbTKThRgw/o.jpg", "is_closed": false, "url": "https://www.yelp.com/biz/sacco-pizza-new-york?adjust_creative=TqzhtA42spPSKOmzDuw9JA&utm_campaign=yelp_api_v3&utm_medium=api_v3_business_search&utm_source=TqzhtA42spPSKOmzDuw9JA", "review_count": 481, "categories": [{"alias": "pizza", "title": "Pizza"}], "rating": 4.1, "coordinates": {"latitude": 40.7662658691406, "longitude": -73.9872665405273}, "transactions": ["pickup", "delivery"], "price": "$", "location": {"address1": "819 9th Ave", "address2": "", "address3": "", "city": "New York", "zip_code": "10019", "country": "US", "state": "NY", "display_address": ["819 9th Ave", "New York, NY 10019"]}, "phone": "+12125827765", "display_phone": "(212) 582-7765", "distance": 1684.9078132132602}, {"id": "vjubSxmdG_HoBBgd39geBw", "alias": "ninos-46-new-york", "name": "Nino's 46", "image_url": "https://s3-media1.fl.yelpcdn.com/bphoto/XaWaaf19By2R9_CCiSMC4Q/o.jpg", "is_closed": false, "url": "https://www.yelp.com/biz/ninos-46-new-york?adjust_creative=TqzhtA42spPSKOmzDuw9JA&utm_campaign=yelp_api_v3&utm_medium=api_v3_business_search&utm_source=TqzhtA42spPSKOmzDuw9JA", "review_count": 1504, "categories": [{"alias": "italian", "title": "Italian"}, {"alias": "gluten_free", "title": "Gluten-Free"}, {"alias": "pizza", "title": "Pizza"}], "rating": 4.0, "coordinates": {"latitude": 40.756899, "longitude": -73.980507}, "transactions": ["pickup", "restaurant_reservation", "delivery"], "price": "$$", "location": {"address1": "39 W 46th St", "address2": null, "address3": "", "city": "New York", "zip_code": "10036", "country": "US", "state": "NY", "display_address": ["39 W 46th St", "New York, NY 10036"]}, "phone": "+12127194015", "display_phone": "(212) 719-4015", "distance": 955.8210456664629}, {"id": "H1YIowHp7SMbpVoOtSEIJg", "alias": "2-bros-pizza-new-york-6", "name": "2 Bros Pizza", "image_url": "https://s3-media4.fl.yelpcdn.com/bphoto/AC_Ic9z45luqs3CiBngwaw/o.jpg", "is_closed": false, "url": "https://www.yelp.com/biz/2-bros-pizza-new-york-6?adjust_creative=TqzhtA42spPSKOmzDuw9JA&utm_campaign=yelp_api_v3&utm_medium=api_v3_business_search&utm_source=TqzhtA42spPSKOmzDuw9JA", "review_count": 483, "categories": [{"alias": "pizza", "title": "Pizza"}], "rating": 3.8, "coordinates": {"latitude": 40.75681, "longitude": -73.980238}, "transactions": ["pickup", "delivery"], "price": "$", "location": {"address1": "31 W 46th St", "address2": "", "address3": "", "city": "New York", "zip_code": "10036", "country": "US", "state": "NY", "display_address": ["31 W 46th St", "New York, NY 10036"]}, "phone": "+16465181251", "display_phone": "(646) 518-1251", "distance": 930.56038643323}, {"id": "FhXjAc6nKLf414KxYujUHw", "alias": "robertas-brooklyn-2", "name": "Roberta's", "image_url": "https://s3-media3.fl.yelpcdn.com/bphoto/e8enpWJ_fWrFXMNxhACfQQ/o.jpg", "is_closed": false, "url": "https://www.yelp.com/biz/robertas-brooklyn-2?adjust_creative=TqzhtA42spPSKOmzDuw9JA&utm_campaign=yelp_api_v3&utm_medium=api_v3_business_search&utm_source=TqzhtA42spPSKOmzDuw9JA", "review_count": 3352, "categories": [{"alias": "pizza", "title": "Pizza"}, {"alias": "italian", "title": "Italian"}], "rating": 4.0, "coordinates": {"latitude": 40.70493, "longitude": -73.93399}, "transactions": ["pickup", "delivery"], "price": "$$", "location": {"address1": "261 Moore St", "address2": "", "address3": "", "city": "Brooklyn", "zip_code": "11206", "country": "US", "state": "NY", "display_address": ["261 Moore St", "Brooklyn, NY 11206"]}, "phone": "+17184171118", "display_phone": "(718) 417-1118", "distance": 6735.84438092087}, {"id": "jzvHGkDUIQkcz8CZM_Je_g", "alias": "lupo-rosso-long-island-city", "name": "Lupo Rosso", "image_url": "https://s3-media2.fl.yelpcdn.com/bphoto/JnHdbninwRO9H9zR40CrvQ/o.jpg", "is_closed": false, "url": "https://www.yelp.com/biz/lupo-rosso-long-island-city?adjust_creative=TqzhtA42spPSKOmzDuw9JA&utm_campaign=yelp_api_v3&utm_medium=api_v3_business_search&utm_source=TqzhtA42spPSKOmzDuw9JA", "review_count": 40, "categories": [{"alias": "pizza", "title": "Pizza"}, {"alias": "italian", "title": "Italian"}, {"alias": "salad", "title": "Salad"}], "rating": 4.7, "coordinates": {"latitude": 40.75008, "longitude": -73.948856}, "transactions": ["pickup", "delivery"], "location": {"address1": "43-69 11th St", "address2": null, "address3": "", "city": "Long Island City", "zip_code": "11101", "country": "US", "state": "NY", "display_address": ["43-69 11th St", "Long Island City, NY 11101"]}, "phone": "+17186852255", "display_phone": "(718) 685-2255", "distance": 2012.6995999795897}, {"id": "1uOB_tWZwvI0_HakXfu5Jg", "alias": "nicks-pizza-new-york", "name": "Nick's Pizza", "image_url": "https://s3-media1.fl.yelpcdn.com/bphoto/JEUcj1mLtAuwISgiFOPWEg/o.jpg", "is_closed": false, "url": "https://www.yelp.com/biz/nicks-pizza-new-york?adjust_creative=TqzhtA42spPSKOmzDuw9JA&utm_campaign=yelp_api_v3&utm_medium=api_v3_business_search&utm_source=TqzhtA42spPSKOmzDuw9JA", "review_count": 610, "categories": [{"alias": "italian", "title": "Italian"}, {"alias": "pizza", "title": "Pizza"}], "rating": 3.9, "coordinates": {"latitude": 40.78272735790179, "longitude": -73.9478073}, "transactions": ["pickup", "delivery"], "price": "$$", "location": {"address1": "1814 2nd Ave", "address2": "", "address3": "", "city": "New York", "zip_code": "10128", "country": "US", "state": "NY", "display_address": ["1814 2nd Ave", "New York, NY 10128"]}, "phone": "+12129875700", "display_phone": "(212) 987-5700", "distance": 3196.6625542519714}, {"id": "oMHgIZmAqib-2QuhGL_EKQ", "alias": "nonnas-pizzeria-and-italian-kitchen-brooklyn", "name": "Nonna's Pizzeria & Italian Kitchen", "image_url": "https://s3-media1.fl.yelpcdn.com/bphoto/bUIySitva5ow92snMFK4-w/o.jpg", "is_closed": false, "url": "https://www.yelp.com/biz/nonnas-pizzeria-and-italian-kitchen-brooklyn?adjust_creative=TqzhtA42spPSKOmzDuw9JA&utm_campaign=yelp_api_v3&utm_medium=api_v3_business_search&utm_source=TqzhtA42spPSKOmzDuw9JA", "review_count": 47, "categories": [{"alias": "pizza", "title": "Pizza"}, {"alias": "italian", "title": "Italian"}], "rating": 3.7, "coordinates": {"latitude": 40.7259858660139, "longitude": -73.9418397423279}, "transactions": ["pickup", "delivery"], "location": {"address1": "253 Nassau Ave", "address2": "", "address3": null, "city": "Brooklyn", "zip_code": "11222", "country": "US", "state": "NY", "display_address": ["253 Nassau Ave", "Brooklyn, NY 11222"]}, "phone": "+17183892600", "display_phone": "(718) 389-2600", "distance": 4367.901144224588}, {"id": "tpcCX_SHaNXqAzXOzbluJQ", "alias": "fini-pizza-brooklyn", "name": "Fini Pizza", "image_url": "https://s3-media1.fl.yelpcdn.com/bphoto/harcCpQXJDORLLW0BFQNfw/o.jpg", "is_closed": false, "url": "https://www.yelp.com/biz/fini-pizza-brooklyn?adjust_creative=TqzhtA42spPSKOmzDuw9JA&utm_campaign=yelp_api_v3&utm_medium=api_v3_business_search&utm_source=TqzhtA42spPSKOmzDuw9JA", "review_count": 168, "categories": [{"alias": "pizza", "title": "Pizza"}], "rating": 4.3, "coordinates": {"latitude": 40.71348, "longitude": -73.96182}, "transactions": [], "location": {"address1": "305 Bedford Ave", "address2": "", "address3": null, "city": "Brooklyn", "zip_code": "11211", "country": "US", "state": "NY", "display_address": ["305 Bedford Ave", "Brooklyn, NY 11211"]}, "phone": "+19299693073", "display_phone": "(929) 969-3073", "distance": 5126.285876512773}, {"id": "5Ukroq-mXS86EtRKj5deAQ", "alias": "song-e-napule-new-york-5", "name": "Song E Napule", "image_url": "https://s3-media4.fl.yelpcdn.com/bphoto/abCOG49JsvrwIqOKQIxOVA/o.jpg", "is_closed": false, "url": "https://www.yelp.com/biz/song-e-napule-new-york-5?adjust_creative=TqzhtA42spPSKOmzDuw9JA&utm_campaign=yelp_api_v3&utm_medium=api_v3_business_search&utm_source=TqzhtA42spPSKOmzDuw9JA", "review_count": 108, "categories": [{"alias": "pizza", "title": "Pizza"}, {"alias": "italian", "title": "Italian"}], "rating": 4.1, "coordinates": {"latitude": 40.78544473364387, "longitude": -73.9769653}, "transactions": ["pickup", "delivery"], "price": "$$$", "location": {"address1": "464 Amsterdam Ave", "address2": "", "address3": null, "city": "New York", "zip_code": "10024", "country": "US", "state": "NY", "display_address": ["464 Amsterdam Ave", "New York, NY 10024"]}, "phone": "+19174727561", "display_phone": "(917) 472-7561", "distance": 2986.665676103864}, {"id": "rtU8unwT3xSl47ksZWf1rQ", "alias": "baked-by-luigi-new-york-2", "name": "Baked by Luigi", "image_url": "https://s3-media1.fl.yelpcdn.com/bphoto/EJ6LHeNjYN4GroT4kg9giA/o.jpg", "is_closed": false, "url": "https://www.yelp.com/biz/baked-by-luigi-new-york-2?adjust_creative=TqzhtA42spPSKOmzDuw9JA&utm_campaign=yelp_api_v3&utm_medium=api_v3_business_search&utm_source=TqzhtA42spPSKOmzDuw9JA", "review_count": 82, "categories": [{"alias": "pizza", "title": "Pizza"}, {"alias": "italian", "title": "Italian"}, {"alias": "sandwiches", "title": "Sandwiches"}], "rating": 4.8, "coordinates": {"latitude": 40.73849, "longitude": -73.98193}, "transactions": ["pickup", "delivery"], "location": {"address1": "221 E 23rd St", "address2": null, "address3": "", "city": "New York", "zip_code": "10010", "country": "US", "state": "NY", "display_address": ["221 E 23rd St", "New York, NY 10010"]}, "phone": "+16464540045", "display_phone": "(646) 454-0045", "distance": 2519.7950756041223}, {"id": "QfCbV1_VIjfCkowro_WGNA", "alias": "luigis-pizza-brooklyn", "name": "Luigi's Pizza", "image_url": "https://s3-media1.fl.yelpcdn.com/bphoto/Sn7zejai0MLoI54VcXheIQ/o.jpg", "is_closed": false, "url": "https://www.yelp.com/biz/luigis-pizza-brooklyn?adjust_creative=TqzhtA42spPSKOmzDuw9JA&utm_campaign=yelp_api_v3&utm_medium=api_v3_business_search&utm_source=TqzhtA42spPSKOmzDuw9JA", "review_count": 571, "categories": [{"alias": "pizza", "title": "Pizza"}], "rating": 4.3, "coordinates": {"latitude": 40.66163, "longitude": -73.99334}, "transactions": ["pickup", "delivery"], "price": "$", "location": {"address1": "686 5th Ave", "address2": "", "address3": "", "city": "Brooklyn", "zip_code": "11215", "country": "US", "state": "NY", "display_address": ["686 5th Ave", "Brooklyn, NY 11215"]}, "phone": "+17184993857", "display_phone": "(718) 499-3857", "distance": 11029.34383942291}, {"id": "HV8xairb2qct7wSHqNwqXw", "alias": "levante-long-island-city", "name": "Levante", "image_url": "https://s3-media4.fl.yelpcdn.com/bphoto/684bF9EC12x0Yy9JjmGXqw/o.jpg", "is_closed": false, "url": "https://www.yelp.com/biz/levante-long-island-city?adjust_creative=TqzhtA42spPSKOmzDuw9JA&utm_campaign=yelp_api_v3&utm_medium=api_v3_business_search&utm_source=TqzhtA42spPSKOmzDuw9JA", "review_count": 377, "categories": [{"alias": "pizza", "title": "Pizza"}, {"alias": "bars", "title": "Bars"}, {"alias": "italian", "title": "Italian"}], "rating": 4.0, "coordinates": {"latitude": 40.74764, "longitude": -73.94173}, "transactions": ["pickup", "delivery"], "price": "$$", "location": {"address1": "26-21 Jackson Ave", "address2": "", "address3": null, "city": "Long Island City", "zip_code": "11101", "country": "US", "state": "NY", "display_address": ["26-21 Jackson Ave", "Long Island City, NY 11101"]}, "phone": "+17183923885", "display_phone": "(718) 392-3885", "distance": 2675.671889015883}, {"id": "S8OKQ5S40oZ1Rr5RbC0jdg", "alias": "motorino-pizza-village", "name": "Motorino Pizza", "image_url": "https://s3-media3.fl.yelpcdn.com/bphoto/ebfvJxlqlBxp5xSKYi9wVw/o.jpg", "is_closed": false, "url": "https://www.yelp.com/biz/motorino-pizza-village?adjust_creative=TqzhtA42spPSKOmzDuw9JA&utm_campaign=yelp_api_v3&utm_medium=api_v3_business_search&utm_source=TqzhtA42spPSKOmzDuw9JA", "review_count": 1143, "categories": [{"alias": "pizza", "title": "Pizza"}, {"alias": "italian", "title": "Italian"}], "rating": 3.8, "coordinates": {"latitude": 40.730321, "longitude": -73.983855}, "transactions": ["pickup", "delivery"], "price": "$$", "location": {"address1": "349 E 12th E", "address2": "", "address3": "", "city": "Village", "zip_code": "10003", "country": "US", "state": "NY", "display_address": ["349 E 12th E", "Village, NY 10003"]}, "phone": "+12127772644", "display_phone": "(212) 777-2644", "distance": 3426.53490668353}, {"id": "U0qnUmFtGdiPm6I0x-Jd7Q", "alias": "little-italy-pizza-new-york-40", "name": "Little Italy Pizza", "image_url": "https://s3-media2.fl.yelpcdn.com/bphoto/t59mfa_MnS1st4ynZ0fE0w/o.jpg", "is_closed": false, "url": "https://www.yelp.com/biz/little-italy-pizza-new-york-40?adjust_creative=TqzhtA42spPSKOmzDuw9JA&utm_campaign=yelp_api_v3&utm_medium=api_v3_business_search&utm_source=TqzhtA42spPSKOmzDuw9JA", "review_count": 82, "categories": [{"alias": "pizza", "title": "Pizza"}], "rating": 3.9, "coordinates": {"latitude": 40.75975, "longitude": -73.98372}, "transactions": ["pickup", "delivery"], "location": {"address1": "167 W 48th St", "address2": "", "address3": null, "city": "New York", "zip_code": "10036", "country": "US", "state": "NY", "display_address": ["167 W 48th St", "New York, NY 10036"]}, "phone": "+16463602346", "display_phone": "(646) 360-2346", "distance": 1195.851357576222}, {"id": "z1wYVL3ysffO3wi_FTDkXw", "alias": "la-pizza-italia-new-york-2", "name": "La Pizza Italia", "image_url": "https://s3-media4.fl.yelpcdn.com/bphoto/7ISBT8F3h8Pxsr852zVChA/o.jpg", "is_closed": false, "url": "https://www.yelp.com/biz/la-pizza-italia-new-york-2?adjust_creative=TqzhtA42spPSKOmzDuw9JA&utm_campaign=yelp_api_v3&utm_medium=api_v3_business_search&utm_source=TqzhtA42spPSKOmzDuw9JA", "review_count": 16, "categories": [{"alias": "pizza", "title": "Pizza"}, {"alias": "pastashops", "title": "Pasta Shops"}, {"alias": "salad", "title": "Salad"}], "rating": 3.9, "coordinates": {"latitude": 40.75544, "longitude": -73.96836}, "transactions": ["pickup", "delivery"], "location": {"address1": "959 2nd Ave", "address2": "", "address3": null, "city": "New York", "zip_code": "10022", "country": "US", "state": "NY", "display_address": ["959 2nd Ave", "New York, NY 10022"]}, "phone": "+19179652248", "display_phone": "(917) 965-2248", "distance": 425.85950097748076}, {"id": "jP7Euk15hZGklEYe3E3OUA", "alias": "made-in-new-york-pizza-new-york-9", "name": "Made In New York Pizza", "image_url": "https://s3-media2.fl.yelpcdn.com/bphoto/g39OIyuPZhYYDKlOHr3hyA/o.jpg", "is_closed": false, "url": "https://www.yelp.com/biz/made-in-new-york-pizza-new-york-9?adjust_creative=TqzhtA42spPSKOmzDuw9JA&utm_campaign=yelp_api_v3&utm_medium=api_v3_business_search&utm_source=TqzhtA42spPSKOmzDuw9JA", "review_count": 44, "categories": [{"alias": "pizza", "title": "Pizza"}], "rating": 4.0, "coordinates": {"latitude": 40.779044, "longitude": -73.98102}, "transactions": ["pickup", "delivery"], "location": {"address1": "271 Amsterdam Ave", "address2": "", "address3": null, "city": "New York", "zip_code": "10023", "country": "US", "state": "NY", "display_address": ["271 Amsterdam Ave", "New York, NY 10023"]}, "phone": "+16464498556", "display_phone": "(646) 449-8556", "distance": 2406.656566512472}, {"id": "EJOpdpy6QPTtmC7Fn04yHw", "alias": "patsys-pizzeria-new-york-6", "name": "Patsy's Pizzeria", "image_url": "https://s3-media4.fl.yelpcdn.com/bphoto/2Kj_uydkKNI_6BJXMCzMhQ/o.jpg", "is_closed": false, "url": "https://www.yelp.com/biz/patsys-pizzeria-new-york-6?adjust_creative=TqzhtA42spPSKOmzDuw9JA&utm_campaign=yelp_api_v3&utm_medium=api_v3_business_search&utm_source=TqzhtA42spPSKOmzDuw9JA", "review_count": 616, "categories": [{"alias": "pizza", "title": "Pizza"}, {"alias": "italian", "title": "Italian"}], "rating": 3.4, "coordinates": {"latitude": 40.7785204, "longitude": -73.9769718}, "transactions": ["pickup", "delivery"], "price": "$$", "location": {"address1": "61 W 74th St", "address2": "", "address3": "", "city": "New York", "zip_code": "10023", "country": "US", "state": "NY", "display_address": ["61 W 74th St", "New York, NY 10023"]}, "phone": "+12125793000", "display_phone": "(212) 579-3000", "distance": 2273.859691276358}, {"id": "LkV96_buOU_n0br4SBO57w", "alias": "ci-siamo-new-york-5", "name": "Ci Siamo", "image_url": "https://s3-media3.fl.yelpcdn.com/bphoto/w3S7rWvu3W4WXmvT1pGxEA/o.jpg", "is_closed": false, "url": "https://www.yelp.com/biz/ci-siamo-new-york-5?adjust_creative=TqzhtA42spPSKOmzDuw9JA&utm_campaign=yelp_api_v3&utm_medium=api_v3_business_search&utm_source=TqzhtA42spPSKOmzDuw9JA", "review_count": 570, "categories": [{"alias": "italian", "title": "Italian"}, {"alias": "bars", "title": "Bars"}, {"alias": "pizza", "title": "Pizza"}], "rating": 4.4, "coordinates": {"latitude": 40.75240549384363, "longitude": -73.9982864846782}, "transactions": [], "price": "$$$", "location": {"address1": "440 West 33rd St", "address2": "Ste 100", "address3": "", "city": "New York", "zip_code": "10001", "country": "US", "state": "NY", "display_address": ["440 West 33rd St", "Ste 100", "New York, NY 10001"]}, "phone": "+12122196559", "display_phone": "(212) 219-6559", "distance": 2532.878983859273}, {"id": "vpkTNjq9dRh9rT3Nh0pe-A", "alias": "nolita-pizza-new-york-2", "name": "Nolita Pizza", "image_url": "https://s3-media2.fl.yelpcdn.com/bphoto/_BKVVoeQoEeYf0DjWcfArg/o.jpg", "is_closed": false, "url": "https://www.yelp.com/biz/nolita-pizza-new-york-2?adjust_creative=TqzhtA42spPSKOmzDuw9JA&utm_campaign=yelp_api_v3&utm_medium=api_v3_business_search&utm_source=TqzhtA42spPSKOmzDuw9JA", "review_count": 304, "categories": [{"alias": "pizza", "title": "Pizza"}, {"alias": "gluten_free", "title": "Gluten-Free"}, {"alias": "italian", "title": "Italian"}], "rating": 4.5, "coordinates": {"latitude": 40.7208883, "longitude": -73.9962404}, "transactions": ["pickup", "delivery"], "price": "$", "location": {"address1": "68 Kenmare St", "address2": null, "address3": null, "city": "New York", "zip_code": "10012", "country": "US", "state": "NY", "display_address": ["68 Kenmare St", "New York, NY 10012"]}, "phone": "+16468959131", "display_phone": "(646) 895-9131", "distance": 4813.686913437023}, {"id": "QR7eMOsOXxGg26xx4wQUOw", "alias": "bardough-new-york", "name": "BarDough", "image_url": "https://s3-media1.fl.yelpcdn.com/bphoto/TooB0ZdLd3FbmEUbcsSStw/o.jpg", "is_closed": false, "url": "https://www.yelp.com/biz/bardough-new-york?adjust_creative=TqzhtA42spPSKOmzDuw9JA&utm_campaign=yelp_api_v3&utm_medium=api_v3_business_search&utm_source=TqzhtA42spPSKOmzDuw9JA", "review_count": 293, "categories": [{"alias": "bars", "title": "Bars"}, {"alias": "pizza", "title": "Pizza"}, {"alias": "newamerican", "title": "New American"}], "rating": 4.4, "coordinates": {"latitude": 40.7603523698496, "longitude": -73.9898819848895}, "transactions": ["pickup", "delivery"], "price": "$$", "location": {"address1": "350 W 46th St", "address2": "", "address3": null, "city": "New York", "zip_code": "10036", "country": "US", "state": "NY", "display_address": ["350 W 46th St", "New York, NY 10036"]}, "phone": "+19172620543", "display_phone": "(917) 262-0543", "distance": 1715.4459251274811}, {"id": "iZy9jzm96eyop79Wc1m5Ng", "alias": "uncle-pauls-pizza-new-york", "name": "Uncle Paul's Pizza", "image_url": "https://s3-media3.fl.yelpcdn.com/bphoto/yLfV6uBMDFjjHR7tOO3Zjg/o.jpg", "is_closed": false, "url": "https://www.yelp.com/biz/uncle-pauls-pizza-new-york?adjust_creative=TqzhtA42spPSKOmzDuw9JA&utm_campaign=yelp_api_v3&utm_medium=api_v3_business_search&utm_source=TqzhtA42spPSKOmzDuw9JA", "review_count": 482, "categories": [{"alias": "pizza", "title": "Pizza"}, {"alias": "coffee", "title": "Coffee & Tea"}], "rating": 3.8, "coordinates": {"latitude": 40.7547371227125, "longitude": -73.9768720536618}, "transactions": ["pickup", "delivery"], "price": "$$", "location": {"address1": "70 Vanderbilt Ave", "address2": "", "address3": "", "city": "New York", "zip_code": "10017", "country": "US", "state": "NY", "display_address": ["70 Vanderbilt Ave", "New York, NY 10017"]}, "phone": "+12129221200", "display_phone": "(212) 922-1200", "distance": 788.2530568566813}, {"id": "AKE0PMDuroeqCf3ZyPYDfQ", "alias": "little-italy-pizza-new-york-41", "name": "Little Italy Pizza", "image_url": "https://s3-media4.fl.yelpcdn.com/bphoto/zje7_-N7AjdzBDsNw6HcYg/o.jpg", "is_closed": false, "url": "https://www.yelp.com/biz/little-italy-pizza-new-york-41?adjust_creative=TqzhtA42spPSKOmzDuw9JA&utm_campaign=yelp_api_v3&utm_medium=api_v3_business_search&utm_source=TqzhtA42spPSKOmzDuw9JA", "review_count": 55, "categories": [{"alias": "pizza", "title": "Pizza"}], "rating": 4.2, "coordinates": {"latitude": 40.7576385630105, "longitude": -73.98970998823643}, "transactions": ["pickup", "delivery"], "location": {"address1": "671 8th Ave", "address2": "", "address3": null, "city": "New York", "zip_code": "10036", "country": "US", "state": "NY", "display_address": ["671 8th Ave", "New York, NY 10036"]}, "phone": "+16464490158", "display_phone": "(646) 449-0158", "distance": 1704.5686451070412}, {"id": "vfYhEpp0x-DrNjC6GSJjPQ", "alias": "artichoke-basilles-pizza-new-york-2", "name": "Artichoke Basille's Pizza", "image_url": "https://s3-media3.fl.yelpcdn.com/bphoto/4krjwPml7pLVDnn56sf6AQ/o.jpg", "is_closed": false, "url": "https://www.yelp.com/biz/artichoke-basilles-pizza-new-york-2?adjust_creative=TqzhtA42spPSKOmzDuw9JA&utm_campaign=yelp_api_v3&utm_medium=api_v3_business_search&utm_source=TqzhtA42spPSKOmzDuw9JA", "review_count": 4245, "categories": [{"alias": "pizza", "title": "Pizza"}], "rating": 3.8, "coordinates": {"latitude": 40.73216, "longitude": -73.983877}, "transactions": ["delivery", "pickup"], "price": "$", "location": {"address1": "321 E 14th St", "address2": "", "address3": "", "city": "New York", "zip_code": "10003", "country": "US", "state": "NY", "display_address": ["321 E 14th St", "New York, NY 10003"]}, "phone": "+12122282004", "display_phone": "(212) 228-2004", "distance": 3235.2401158146836}, {"id": "h1_zWY2PVTZ5ul0RuiJ59g", "alias": "motorino-new-york-3", "name": "Motorino Pizza", "image_url": "https://s3-media1.fl.yelpcdn.com/bphoto/JZnDiO0ggfJmXU4Nisavzw/o.jpg", "is_closed": false, "url": "https://www.yelp.com/biz/motorino-new-york-3?adjust_creative=TqzhtA42spPSKOmzDuw9JA&utm_campaign=yelp_api_v3&utm_medium=api_v3_business_search&utm_source=TqzhtA42spPSKOmzDuw9JA", "review_count": 313, "categories": [{"alias": "pizza", "title": "Pizza"}, {"alias": "italian", "title": "Italian"}], "rating": 3.6, "coordinates": {"latitude": 40.785662, "longitude": -73.973032}, "transactions": ["delivery", "pickup"], "price": "$$", "location": {"address1": "510 Columbus Ave", "address2": null, "address3": "", "city": "New York", "zip_code": "10024", "country": "US", "state": "NY", "display_address": ["510 Columbus Ave", "New York, NY 10024"]}, "phone": "+19176757581", "display_phone": "(917) 675-7581", "distance": 2959.60968668161}, {"id": "xRu4zghNagnUl40_fD1j0g", "alias": "quality-pizza-new-york", "name": "Quality Pizza", "image_url": "https://s3-media3.fl.yelpcdn.com/bphoto/M99EtzqoNQTU6Gk0s9wJtg/o.jpg", "is_closed": false, "url": "https://www.yelp.com/biz/quality-pizza-new-york?adjust_creative=TqzhtA42spPSKOmzDuw9JA&utm_campaign=yelp_api_v3&utm_medium=api_v3_business_search&utm_source=TqzhtA42spPSKOmzDuw9JA", "review_count": 14, "categories": [{"alias": "pizza", "title": "Pizza"}], "rating": 4.5, "coordinates": {"latitude": 40.7482, "longitude": -73.98874}, "transactions": ["pickup", "delivery"], "location": {"address1": "888 6th Ave", "address2": "", "address3": null, "city": "New York", "zip_code": "10001", "country": "US", "state": "NY", "display_address": ["888 6th Ave", "New York, NY 10001"]}, "phone": "+16468580048", "display_phone": "(646) 858-0048", "distance": 2023.4450887204957}, {"id": "CAGAWbPE8uPr2VVvEnv0ZA", "alias": "ribalta-pizza-new-york", "name": "Ribalta Pizza", "image_url": "https://s3-media3.fl.yelpcdn.com/bphoto/ooTNVoeoE9mhPBv3Wgmhaw/o.jpg", "is_closed": false, "url": "https://www.yelp.com/biz/ribalta-pizza-new-york?adjust_creative=TqzhtA42spPSKOmzDuw9JA&utm_campaign=yelp_api_v3&utm_medium=api_v3_business_search&utm_source=TqzhtA42spPSKOmzDuw9JA", "review_count": 859, "categories": [{"alias": "pizza", "title": "Pizza"}, {"alias": "italian", "title": "Italian"}, {"alias": "gluten_free", "title": "Gluten-Free"}], "rating": 4.0, "coordinates": {"latitude": 40.7334346, "longitude": -73.9916923}, "transactions": ["pickup", "delivery"], "price": "$$", "location": {"address1": "48 E 12th St", "address2": "", "address3": "", "city": "New York", "zip_code": "10003", "country": "US", "state": "NY", "display_address": ["48 E 12th St", "New York, NY 10003"]}, "phone": "+12127777781", "display_phone": "(212) 777-7781", "distance": 3415.2377439936768}, {"id": "2FgUndzCT_jJATbmrBDVBg", "alias": "paulie-gees-slice-shop-brooklyn", "name": "Paulie Gee's Slice Shop", "image_url": "https://s3-media1.fl.yelpcdn.com/bphoto/zhWAAjTRTZ1PdQW-JNV69g/o.jpg", "is_closed": false, "url": "https://www.yelp.com/biz/paulie-gees-slice-shop-brooklyn?adjust_creative=TqzhtA42spPSKOmzDuw9JA&utm_campaign=yelp_api_v3&utm_medium=api_v3_business_search&utm_source=TqzhtA42spPSKOmzDuw9JA", "review_count": 414, "categories": [{"alias": "pizza", "title": "Pizza"}, {"alias": "italian", "title": "Italian"}], "rating": 4.0, "coordinates": {"latitude": 40.72836, "longitude": -73.9572}, "transactions": ["delivery"], "price": "$", "location": {"address1": "110 Franklin St", "address2": "", "address3": null, "city": "Brooklyn", "zip_code": "11222", "country": "US", "state": "NY", "display_address": ["110 Franklin St", "Brooklyn, NY 11222"]}, "phone": "+19293376384", "display_phone": "(929) 337-6384", "distance": 3581.668704349198}, {"id": "hveuXFWS53S1wWpaK0nokw", "alias": "lupetto-new-york", "name": "Lupetto", "image_url": "https://s3-media3.fl.yelpcdn.com/bphoto/z1exZq7lZOp4qNQJynW-gA/o.jpg", "is_closed": false, "url": "https://www.yelp.com/biz/lupetto-new-york?adjust_creative=TqzhtA42spPSKOmzDuw9JA&utm_campaign=yelp_api_v3&utm_medium=api_v3_business_search&utm_source=TqzhtA42spPSKOmzDuw9JA", "review_count": 56, "categories": [{"alias": "italian", "title": "Italian"}, {"alias": "pizza", "title": "Pizza"}, {"alias": "cocktailbars", "title": "Cocktail Bars"}], "rating": 4.4, "coordinates": {"latitude": 40.74332, "longitude": -73.98924}, "transactions": [], "location": {"address1": "1123 Broadway", "address2": "", "address3": null, "city": "New York", "zip_code": "10010", "country": "US", "state": "NY", "display_address": ["1123 Broadway", "New York, NY 10010"]}, "phone": "", "display_phone": "", "distance": 2418.021139006982}, {"id": "j6fSechU9HxzbnK-kjQx1Q", "alias": "san-matteo-pizza-and-espresso-bar-new-york", "name": "San Matteo Pizza and Espresso Bar", "image_url": "https://s3-media3.fl.yelpcdn.com/bphoto/eALRb5Hz_hRQz1vQKg3NNA/o.jpg", "is_closed": false, "url": "https://www.yelp.com/biz/san-matteo-pizza-and-espresso-bar-new-york?adjust_creative=TqzhtA42spPSKOmzDuw9JA&utm_campaign=yelp_api_v3&utm_medium=api_v3_business_search&utm_source=TqzhtA42spPSKOmzDuw9JA", "review_count": 582, "categories": [{"alias": "pizza", "title": "Pizza"}, {"alias": "wine_bars", "title": "Wine Bars"}], "rating": 3.8, "coordinates": {"latitude": 40.779877, "longitude": -73.950045}, "transactions": ["pickup", "delivery"], "price": "$$", "location": {"address1": "1716 2nd Ave", "address2": "", "address3": "", "city": "New York", "zip_code": "10128", "country": "US", "state": "NY", "display_address": ["1716 2nd Ave", "New York, NY 10128"]}, "phone": "+12124266943", "display_phone": "(212) 426-6943", "distance": 2897.1134678662556}, {"id": "kIm0oeOaVfC9-2flLPVklA", "alias": "patrizias-pizza-and-pasta-new-york", "name": "Patrizia's Pizza and Pasta", "image_url": "https://s3-media1.fl.yelpcdn.com/bphoto/HG4eRBBgLSG0RrzLZv1mLA/o.jpg", "is_closed": false, "url": "https://www.yelp.com/biz/patrizias-pizza-and-pasta-new-york?adjust_creative=TqzhtA42spPSKOmzDuw9JA&utm_campaign=yelp_api_v3&utm_medium=api_v3_business_search&utm_source=TqzhtA42spPSKOmzDuw9JA", "review_count": 801, "categories": [{"alias": "italian", "title": "Italian"}, {"alias": "pizza", "title": "Pizza"}, {"alias": "catering", "title": "Caterers"}], "rating": 4.1, "coordinates": {"latitude": 40.7398415, "longitude": -73.9792862}, "transactions": ["pickup", "delivery"], "price": "$$", "location": {"address1": "462-466 2nd Ave", "address2": "", "address3": "", "city": "New York", "zip_code": "10016", "country": "US", "state": "NY", "display_address": ["462-466 2nd Ave", "New York, NY 10016"]}, "phone": "+12125979999", "display_phone": "(212) 597-9999", "distance": 2287.189114599836}, {"id": "Ff9ir-c48QMsV4WIdaUzYQ", "alias": "terrone-queens", "name": "Terrone", "image_url": "https://s3-media2.fl.yelpcdn.com/bphoto/SqvxLJNeBeB5xtwDdOo-CA/o.jpg", "is_closed": false, "url": "https://www.yelp.com/biz/terrone-queens?adjust_creative=TqzhtA42spPSKOmzDuw9JA&utm_campaign=yelp_api_v3&utm_medium=api_v3_business_search&utm_source=TqzhtA42spPSKOmzDuw9JA", "review_count": 28, "categories": [{"alias": "pizza", "title": "Pizza"}, {"alias": "italian", "title": "Italian"}], "rating": 3.6, "coordinates": {"latitude": 40.74195009195166, "longitude": -73.9598742}, "transactions": [], "location": {"address1": "5203 Ctr Blvd", "address2": "", "address3": null, "city": "Queens", "zip_code": "11101", "country": "US", "state": "NY", "display_address": ["5203 Ctr Blvd", "Queens, NY 11101"]}, "phone": "", "display_phone": "", "distance": 2082.291876563561}, {"id": "q0HBfS9eJ9AeuaWQ3Ronqw", "alias": "joe-g-pizza-and-restaurant-new-york", "name": "Joe G Pizza & Restaurant", "image_url": "https://s3-media1.fl.yelpcdn.com/bphoto/sQ2zH-hO3K8aSKiLX1ez4g/o.jpg", "is_closed": false, "url": "https://www.yelp.com/biz/joe-g-pizza-and-restaurant-new-york?adjust_creative=TqzhtA42spPSKOmzDuw9JA&utm_campaign=yelp_api_v3&utm_medium=api_v3_business_search&utm_source=TqzhtA42spPSKOmzDuw9JA", "review_count": 193, "categories": [{"alias": "pizza", "title": "Pizza"}, {"alias": "italian", "title": "Italian"}], "rating": 4.1, "coordinates": {"latitude": 40.76564, "longitude": -73.9830099}, "transactions": ["pickup", "delivery"], "price": "$$", "location": {"address1": "244 W 56th St", "address2": "", "address3": "", "city": "New York", "zip_code": "10019", "country": "US", "state": "NY", "display_address": ["244 W 56th St", "New York, NY 10019"]}, "phone": "+12127653160", "display_phone": "(212) 765-3160", "distance": 1340.3923447171944}, {"id": "MHbxF-ZS918-ZoXKQPBEyg", "alias": "sotto-le-stelle-sunnyside", "name": "Sotto Le Stelle", "image_url": "https://s3-media4.fl.yelpcdn.com/bphoto/iE1XmFNBUgTjxrjaMwU58g/o.jpg", "is_closed": false, "url": "https://www.yelp.com/biz/sotto-le-stelle-sunnyside?adjust_creative=TqzhtA42spPSKOmzDuw9JA&utm_campaign=yelp_api_v3&utm_medium=api_v3_business_search&utm_source=TqzhtA42spPSKOmzDuw9JA", "review_count": 401, "categories": [{"alias": "pizza", "title": "Pizza"}], "rating": 4.5, "coordinates": {"latitude": 40.743656, "longitude": -73.9201782}, "transactions": ["pickup", "delivery"], "price": "$$", "location": {"address1": "4407 Queens Blvd", "address2": "", "address3": null, "city": "Sunnyside", "zip_code": "11104", "country": "US", "state": "NY", "display_address": ["4407 Queens Blvd", "Sunnyside, NY 11104"]}, "phone": "+17186852086", "display_phone": "(718) 685-2086", "distance": 4504.5083157881945}, {"id": "REC_m1Y4caJIXz8DDdgh-A", "alias": "mels-new-york-7", "name": "Mel's", "image_url": "https://s3-media2.fl.yelpcdn.com/bphoto/fqh1v4TE_qzXpRL0bFWv7A/o.jpg", "is_closed": false, "url": "https://www.yelp.com/biz/mels-new-york-7?adjust_creative=TqzhtA42spPSKOmzDuw9JA&utm_campaign=yelp_api_v3&utm_medium=api_v3_business_search&utm_source=TqzhtA42spPSKOmzDuw9JA", "review_count": 112, "categories": [{"alias": "pizza", "title": "Pizza"}, {"alias": "cocktailbars", "title": "Cocktail Bars"}], "rating": 4.4, "coordinates": {"latitude": 40.74303, "longitude": -74.00779}, "transactions": [], "location": {"address1": "85 10th Ave", "address2": "", "address3": null, "city": "New York", "zip_code": "10011", "country": "US", "state": "NY", "display_address": ["85 10th Ave", "New York, NY 10011"]}, "phone": "+12129702202", "display_phone": "(212) 970-2202", "distance": 3681.3432576636706}, {"id": "4MIHutYjIwoXsi-R8TlrSg", "alias": "andrew-belluccis-pizzeria-astoria-4", "name": "Andrew Bellucci's Pizzeria", "image_url": "https://s3-media2.fl.yelpcdn.com/bphoto/hTeUq_-WXGiSL-GboG0zSg/o.jpg", "is_closed": false, "url": "https://www.yelp.com/biz/andrew-belluccis-pizzeria-astoria-4?adjust_creative=TqzhtA42spPSKOmzDuw9JA&utm_campaign=yelp_api_v3&utm_medium=api_v3_business_search&utm_source=TqzhtA42spPSKOmzDuw9JA", "review_count": 177, "categories": [{"alias": "pizza", "title": "Pizza"}, {"alias": "italian", "title": "Italian"}, {"alias": "sandwiches", "title": "Sandwiches"}], "rating": 4.4, "coordinates": {"latitude": 40.76436969988826, "longitude": -73.9164369}, "transactions": ["pickup", "delivery"], "price": "$$", "location": {"address1": "37-08 30th Ave", "address2": "", "address3": null, "city": "Astoria", "zip_code": "11103", "country": "US", "state": "NY", "display_address": ["37-08 30th Ave", "Astoria, NY 11103"]}, "phone": "+17184072497", "display_phone": "(718) 407-2497", "distance": 4512.457206645386}, {"id": "hGksyTiHBBdrhbiVjXzWVw", "alias": "scarrs-pizza-new-york", "name": "Scarr's Pizza", "image_url": "https://s3-media3.fl.yelpcdn.com/bphoto/F6JCwU9XmP7FADyxuKrK3Q/o.jpg", "is_closed": false, "url": "https://www.yelp.com/biz/scarrs-pizza-new-york?adjust_creative=TqzhtA42spPSKOmzDuw9JA&utm_campaign=yelp_api_v3&utm_medium=api_v3_business_search&utm_source=TqzhtA42spPSKOmzDuw9JA", "review_count": 1000, "categories": [{"alias": "pizza", "title": "Pizza"}], "rating": 3.9, "coordinates": {"latitude": 40.7157238, "longitude": -73.99161149999999}, "transactions": ["pickup", "delivery"], "price": "$$", "location": {"address1": "35 Orchard St", "address2": "", "address3": "", "city": "New York", "zip_code": "10002", "country": "US", "state": "NY", "display_address": ["35 Orchard St", "New York, NY 10002"]}, "phone": "+12123343481", "display_phone": "(212) 334-3481", "distance": 5176.00127506292}, {"id": "33MID69L6j6ZCZIR_S20uw", "alias": "mamas-too-new-york-2", "name": "Mama's Too", "image_url": "https://s3-media4.fl.yelpcdn.com/bphoto/hus61m8JSFmWsS7MXwcIXA/o.jpg", "is_closed": false, "url": "https://www.yelp.com/biz/mamas-too-new-york-2?adjust_creative=TqzhtA42spPSKOmzDuw9JA&utm_campaign=yelp_api_v3&utm_medium=api_v3_business_search&utm_source=TqzhtA42spPSKOmzDuw9JA", "review_count": 113, "categories": [{"alias": "italian", "title": "Italian"}, {"alias": "pizza", "title": "Pizza"}, {"alias": "sandwiches", "title": "Sandwiches"}], "rating": 3.9, "coordinates": {"latitude": 40.7332319, "longitude": -74.004023}, "transactions": [], "location": {"address1": "323 Bleecker St", "address2": "", "address3": null, "city": "New York", "zip_code": "10014", "country": "US", "state": "NY", "display_address": ["323 Bleecker St", "New York, NY 10014"]}, "phone": "+12125107256", "display_phone": "(212) 510-7256", "distance": 4091.878002893021}, {"id": "EEPyJJFSDNDHFbLMhbDjNg", "alias": "peperino-nyc-pizza-new-york-2", "name": "Peperino NYC Pizza", "image_url": "https://s3-media4.fl.yelpcdn.com/bphoto/4qTfZq2FFbZy77rSI2dcRQ/o.jpg", "is_closed": false, "url": "https://www.yelp.com/biz/peperino-nyc-pizza-new-york-2?adjust_creative=TqzhtA42spPSKOmzDuw9JA&utm_campaign=yelp_api_v3&utm_medium=api_v3_business_search&utm_source=TqzhtA42spPSKOmzDuw9JA", "review_count": 117, "categories": [{"alias": "pizza", "title": "Pizza"}, {"alias": "italian", "title": "Italian"}, {"alias": "wine_bars", "title": "Wine Bars"}], "rating": 3.9, "coordinates": {"latitude": 40.77275912931571, "longitude": -73.99077586611165}, "transactions": ["pickup", "delivery"], "price": "$$", "location": {"address1": "21 West End Ave", "address2": "", "address3": "West 60th Street & Freedom Place", "city": "New York", "zip_code": "10023", "country": "US", "state": "NY", "display_address": ["21 West End Ave", "West 60th Street & Freedom Place", "New York, NY 10023"]}, "phone": "+12122452380", "display_phone": "(212) 245-2380", "distance": 2338.7796365133963}, {"id": "ojL777xhCtDrOrH1ThIBgg", "alias": "pizza-park-new-york", "name": "Pizza Park", "image_url": "https://s3-media2.fl.yelpcdn.com/bphoto/rI4GCutdgEpPiOyruiYIpw/o.jpg", "is_closed": false, "url": "https://www.yelp.com/biz/pizza-park-new-york?adjust_creative=TqzhtA42spPSKOmzDuw9JA&utm_campaign=yelp_api_v3&utm_medium=api_v3_business_search&utm_source=TqzhtA42spPSKOmzDuw9JA", "review_count": 347, "categories": [{"alias": "pizza", "title": "Pizza"}], "rating": 3.7, "coordinates": {"latitude": 40.764380718592, "longitude": -73.958705663681}, "transactions": ["pickup", "delivery"], "price": "$", "location": {"address1": "1233 1st Ave", "address2": "", "address3": "", "city": "New York", "zip_code": "10021", "country": "US", "state": "NY", "display_address": ["1233 1st Ave", "New York, NY 10021"]}, "phone": "+12128796444", "display_phone": "(212) 879-6444", "distance": 1083.0412531793665}, {"id": "EDYTUNp4bFO4dAwJMGuwCQ", "alias": "pizza-collective-new-york", "name": "Pizza Collective", "image_url": "https://s3-media2.fl.yelpcdn.com/bphoto/8tDpSjF1o96aQMR-74IIGw/o.jpg", "is_closed": false, "url": "https://www.yelp.com/biz/pizza-collective-new-york?adjust_creative=TqzhtA42spPSKOmzDuw9JA&utm_campaign=yelp_api_v3&utm_medium=api_v3_business_search&utm_source=TqzhtA42spPSKOmzDuw9JA", "review_count": 143, "categories": [{"alias": "pizza", "title": "Pizza"}], "rating": 4.1, "coordinates": {"latitude": 40.77765, "longitude": -73.98175}, "transactions": ["pickup", "delivery"], "location": {"address1": "2060 Broadway", "address2": null, "address3": null, "city": "New York", "zip_code": "10023", "country": "US", "state": "NY", "display_address": ["2060 Broadway", "New York, NY 10023"]}, "phone": "+16466930949", "display_phone": "(646) 693-0949", "distance": 2296.0419361265713}, {"id": "oWp0SKVb7svGg1Z-ONyp2g", "alias": "pizza-art-new-york", "name": "Pizza Art", "image_url": "https://s3-media3.fl.yelpcdn.com/bphoto/DKH1mr3JMMB_YGLIuwZ8WQ/o.jpg", "is_closed": false, "url": "https://www.yelp.com/biz/pizza-art-new-york?adjust_creative=TqzhtA42spPSKOmzDuw9JA&utm_campaign=yelp_api_v3&utm_medium=api_v3_business_search&utm_source=TqzhtA42spPSKOmzDuw9JA", "review_count": 39, "categories": [{"alias": "pizza", "title": "Pizza"}], "rating": 4.4, "coordinates": {"latitude": 40.75681, "longitude": -73.980238}, "transactions": ["pickup", "delivery"], "location": {"address1": "31 W 46th St", "address2": null, "address3": "", "city": "New York", "zip_code": "10036", "country": "US", "state": "NY", "display_address": ["31 W 46th St", "New York, NY 10036"]}, "phone": "+16463516209", "display_phone": "(646) 351-6209", "distance": 930.56038643323}, {"id": "xRiLLXjeM2wOvVTYJH2__A", "alias": "barboncino-pizza-and-bar-brooklyn-2", "name": "Barboncino Pizza & Bar", "image_url": "https://s3-media2.fl.yelpcdn.com/bphoto/BJn67gw6qrxna25LH_rF0g/o.jpg", "is_closed": false, "url": "https://www.yelp.com/biz/barboncino-pizza-and-bar-brooklyn-2?adjust_creative=TqzhtA42spPSKOmzDuw9JA&utm_campaign=yelp_api_v3&utm_medium=api_v3_business_search&utm_source=TqzhtA42spPSKOmzDuw9JA", "review_count": 1172, "categories": [{"alias": "pizza", "title": "Pizza"}, {"alias": "bars", "title": "Bars"}, {"alias": "italian", "title": "Italian"}], "rating": 4.3, "coordinates": {"latitude": 40.67206, "longitude": -73.95717}, "transactions": ["delivery"], "price": "$$", "location": {"address1": "781 Franklin Ave", "address2": "", "address3": "", "city": "Brooklyn", "zip_code": "11238", "country": "US", "state": "NY", "display_address": ["781 Franklin Ave", "Brooklyn, NY 11238"]}, "phone": "+17184838834", "display_phone": "(718) 483-8834", "distance": 9740.215421749182}, {"id": "4aXPYKWBBpjDmkr9drsZ2g", "alias": "highline-pizzeria-new-york-3", "name": "Highline Pizzeria", "image_url": "https://s3-media4.fl.yelpcdn.com/bphoto/zkUta1bu-adQJmWkYoN4zg/o.jpg", "is_closed": false, "url": "https://www.yelp.com/biz/highline-pizzeria-new-york-3?adjust_creative=TqzhtA42spPSKOmzDuw9JA&utm_campaign=yelp_api_v3&utm_medium=api_v3_business_search&utm_source=TqzhtA42spPSKOmzDuw9JA", "review_count": 197, "categories": [{"alias": "pizza", "title": "Pizza"}, {"alias": "salad", "title": "Salad"}], "rating": 3.9, "coordinates": {"latitude": 40.75109, "longitude": -74.00226}, "transactions": ["pickup", "delivery"], "price": "$", "location": {"address1": "503 W 28th St", "address2": null, "address3": "", "city": "New York", "zip_code": "10001", "country": "US", "state": "NY", "display_address": ["503 W 28th St", "New York, NY 10001"]}, "phone": "+12125643330", "display_phone": "(212) 564-3330", "distance": 2893.72659594896}, {"id": "jS2-VDjb2-CrWsPAr7CQ4Q", "alias": "rosa-pizzeria-of-harlem-new-york", "name": "Rosa Pizzeria of Harlem", "image_url": "https://s3-media3.fl.yelpcdn.com/bphoto/r7yHoWi0Qgo0tqdVm6OhDw/o.jpg", "is_closed": false, "url": "https://www.yelp.com/biz/rosa-pizzeria-of-harlem-new-york?adjust_creative=TqzhtA42spPSKOmzDuw9JA&utm_campaign=yelp_api_v3&utm_medium=api_v3_business_search&utm_source=TqzhtA42spPSKOmzDuw9JA", "review_count": 42, "categories": [{"alias": "pizza", "title": "Pizza"}], "rating": 4.5, "coordinates": {"latitude": 40.80638, "longitude": -73.95371}, "transactions": ["pickup", "delivery"], "price": "$", "location": {"address1": "2210 Frederick Douglass Blvd", "address2": "", "address3": null, "city": "New York", "zip_code": "10026", "country": "US", "state": "NY", "display_address": ["2210 Frederick Douglass Blvd", "New York, NY 10026"]}, "phone": "+19174090099", "display_phone": "(917) 409-0099", "distance": 5415.117509254208}, {"id": "Njvg4CQH85zr_qCzTfC9Xg", "alias": "roma-pizza-new-york-4", "name": "Roma Pizza", "image_url": "https://s3-media1.fl.yelpcdn.com/bphoto/OQeT14hEBkS6eZaW4vf5qQ/o.jpg", "is_closed": false, "url": "https://www.yelp.com/biz/roma-pizza-new-york-4?adjust_creative=TqzhtA42spPSKOmzDuw9JA&utm_campaign=yelp_api_v3&utm_medium=api_v3_business_search&utm_source=TqzhtA42spPSKOmzDuw9JA", "review_count": 412, "categories": [{"alias": "pizza", "title": "Pizza"}, {"alias": "italian", "title": "Italian"}], "rating": 3.4, "coordinates": {"latitude": 40.77843, "longitude": -73.94863}, "transactions": ["pickup", "delivery"], "price": "$", "location": {"address1": "1701 1st Ave", "address2": "", "address3": "", "city": "New York", "zip_code": "10128", "country": "US", "state": "NY", "display_address": ["1701 1st Ave", "New York, NY 10128"]}, "phone": "+12124101910", "display_phone": "(212) 410-1910", "distance": 2773.6596963978777}, {"id": "rJ9V5bMbP_e9ABaTkPjAbA", "alias": "coco-pazzeria-new-york", "name": "Coco Pazzeria", "image_url": "https://s3-media2.fl.yelpcdn.com/bphoto/iFMplyuaKc7WihEIfr7KwQ/o.jpg", "is_closed": false, "url": "https://www.yelp.com/biz/coco-pazzeria-new-york?adjust_creative=TqzhtA42spPSKOmzDuw9JA&utm_campaign=yelp_api_v3&utm_medium=api_v3_business_search&utm_source=TqzhtA42spPSKOmzDuw9JA", "review_count": 81, "categories": [{"alias": "pizza", "title": "Pizza"}, {"alias": "italian", "title": "Italian"}], "rating": 3.9, "coordinates": {"latitude": 40.759328, "longitude": -73.961804}, "transactions": [], "location": {"address1": "1078 First Ave.", "address2": "", "address3": null, "city": "New York", "zip_code": "10022", "country": "US", "state": "NY", "display_address": ["1078 First Ave.", "New York, NY 10022"]}, "phone": "+16468694004", "display_phone": "(646) 869-4004", "distance": 661.7037249151666}, {"id": "NPnWsPxOpG91GHx74S27Uw", "alias": "sottocasa-pizzeria-harlem-new-york", "name": "Sottocasa Pizzeria - Harlem", "image_url": "https://s3-media3.fl.yelpcdn.com/bphoto/WFNaFTC8ppKVCQyCqPIjCg/o.jpg", "is_closed": false, "url": "https://www.yelp.com/biz/sottocasa-pizzeria-harlem-new-york?adjust_creative=TqzhtA42spPSKOmzDuw9JA&utm_campaign=yelp_api_v3&utm_medium=api_v3_business_search&utm_source=TqzhtA42spPSKOmzDuw9JA", "review_count": 365, "categories": [{"alias": "pizza", "title": "Pizza"}, {"alias": "italian", "title": "Italian"}], "rating": 4.5, "coordinates": {"latitude": 40.8055499, "longitude": -73.94746}, "transactions": ["delivery"], "price": "$$", "location": {"address1": "227 Lenox Ave", "address2": "", "address3": "", "city": "New York", "zip_code": "10027", "country": "US", "state": "NY", "display_address": ["227 Lenox Ave", "New York, NY 10027"]}, "phone": "+16469284870", "display_phone": "(646) 928-4870", "distance": 5482.267666565929}, {"id": "Ajvcvk6tvlKbRF8Zkf0M5Q", "alias": "marinara-pizza-new-york-8", "name": "Marinara Pizza", "image_url": "https://s3-media2.fl.yelpcdn.com/bphoto/U_B-xzEtIXocvAGyhllycQ/o.jpg", "is_closed": false, "url": "https://www.yelp.com/biz/marinara-pizza-new-york-8?adjust_creative=TqzhtA42spPSKOmzDuw9JA&utm_campaign=yelp_api_v3&utm_medium=api_v3_business_search&utm_source=TqzhtA42spPSKOmzDuw9JA", "review_count": 85, "categories": [{"alias": "pizza", "title": "Pizza"}], "rating": 3.9, "coordinates": {"latitude": 40.74241, "longitude": -73.98452}, "transactions": ["pickup", "delivery"], "location": {"address1": "379 Park Ave S", "address2": "", "address3": null, "city": "New York", "zip_code": "10016", "country": "US", "state": "NY", "display_address": ["379 Park Ave S", "New York, NY 10016"]}, "phone": "+16466495282", "display_phone": "(646) 649-5282", "distance": 2248.580798694294}, {"id": "Sfo9WvCJGH8PPTMdNbQQzg", "alias": "mariella-pizza-new-york", "name": "Mariella Pizza", "image_url": "https://s3-media1.fl.yelpcdn.com/bphoto/2DfOz5WLfY4Lj-Dp_AsXyg/o.jpg", "is_closed": false, "url": "https://www.yelp.com/biz/mariella-pizza-new-york?adjust_creative=TqzhtA42spPSKOmzDuw9JA&utm_campaign=yelp_api_v3&utm_medium=api_v3_business_search&utm_source=TqzhtA42spPSKOmzDuw9JA", "review_count": 122, "categories": [{"alias": "pizza", "title": "Pizza"}], "rating": 3.4, "coordinates": {"latitude": 40.76920133403351, "longitude": -73.9629409622093}, "transactions": ["pickup", "delivery"], "price": "$", "location": {"address1": "965 Lexington Ave", "address2": "", "address3": "", "city": "New York", "zip_code": "10021", "country": "US", "state": "NY", "display_address": ["965 Lexington Ave", "New York, NY 10021"]}, "phone": "+12122492065", "display_phone": "(212) 249-2065", "distance": 1247.031202014566}, {"id": "OUJkCwzbtw16_KZAzYgE5w", "alias": "limelight-coal-brick-oven-pizzeria-new-york-6", "name": "Limelight Coal Brick Oven Pizzeria", "image_url": "https://s3-media3.fl.yelpcdn.com/bphoto/50rm7o30L48PqmPPsD_IdQ/o.jpg", "is_closed": false, "url": "https://www.yelp.com/biz/limelight-coal-brick-oven-pizzeria-new-york-6?adjust_creative=TqzhtA42spPSKOmzDuw9JA&utm_campaign=yelp_api_v3&utm_medium=api_v3_business_search&utm_source=TqzhtA42spPSKOmzDuw9JA", "review_count": 857, "categories": [{"alias": "pizza", "title": "Pizza"}, {"alias": "italian", "title": "Italian"}, {"alias": "coffee", "title": "Coffee & Tea"}], "rating": 3.6, "coordinates": {"latitude": 40.74105844860242, "longitude": -73.9936086}, "transactions": ["pickup", "delivery"], "price": "$$", "location": {"address1": "656 6th Ave", "address2": "", "address3": "", "city": "New York", "zip_code": "10010", "country": "US", "state": "NY", "display_address": ["656 6th Ave", "New York, NY 10010"]}, "phone": "+16464845665", "display_phone": "(646) 484-5665", "distance": 2856.042922330087}, {"id": "k3vbv0tbV83IrfaH2Z5t5Q", "alias": "maneros-pizza-new-york", "name": "Manero's of Mulberry", "image_url": "https://s3-media4.fl.yelpcdn.com/bphoto/LMljH2ui0wxQKbD7dZisTw/o.jpg", "is_closed": false, "url": "https://www.yelp.com/biz/maneros-pizza-new-york?adjust_creative=TqzhtA42spPSKOmzDuw9JA&utm_campaign=yelp_api_v3&utm_medium=api_v3_business_search&utm_source=TqzhtA42spPSKOmzDuw9JA", "review_count": 115, "categories": [{"alias": "pizza", "title": "Pizza"}], "rating": 4.5, "coordinates": {"latitude": 40.717593, "longitude": -73.998396}, "transactions": ["pickup", "delivery"], "location": {"address1": "113 Mulberry St", "address2": "", "address3": null, "city": "New York", "zip_code": "10013", "country": "US", "state": "NY", "display_address": ["113 Mulberry St", "New York, NY 10013"]}, "phone": "+12129616183", "display_phone": "(212) 961-6183", "distance": 5221.504368323356}, {"id": "peqHuAxooEVH-QvoODVGPQ", "alias": "dollar-1-50-pizza-new-york", "name": "Dollar 1.50 PIZZA", "image_url": "https://s3-media1.fl.yelpcdn.com/bphoto/kba2AyEZY0v2z6hxB_e9Yw/o.jpg", "is_closed": false, "url": "https://www.yelp.com/biz/dollar-1-50-pizza-new-york?adjust_creative=TqzhtA42spPSKOmzDuw9JA&utm_campaign=yelp_api_v3&utm_medium=api_v3_business_search&utm_source=TqzhtA42spPSKOmzDuw9JA", "review_count": 4, "categories": [{"alias": "pizza", "title": "Pizza"}, {"alias": "desserts", "title": "Desserts"}, {"alias": "chicken_wings", "title": "Chicken Wings"}], "rating": 4.0, "coordinates": {"latitude": 40.75932, "longitude": -73.97045}, "transactions": ["pickup", "delivery"], "location": {"address1": "642A Lexington Ave", "address2": "", "address3": null, "city": "New York", "zip_code": "10022", "country": "US", "state": "NY", "display_address": ["642A Lexington Ave", "New York, NY 10022"]}, "phone": "+16463516969", "display_phone": "(646) 351-6969", "distance": 83.61747660104633}, {"id": "NG-vmMrBZlxAZrxgoiromg", "alias": "tappo-nycthincrust-pizza-new-york", "name": "TAPPO NYCThinCrust Pizza", "image_url": "https://s3-media3.fl.yelpcdn.com/bphoto/BAeAQxgnpVFwAs_ahdAT-A/o.jpg", "is_closed": false, "url": "https://www.yelp.com/biz/tappo-nycthincrust-pizza-new-york?adjust_creative=TqzhtA42spPSKOmzDuw9JA&utm_campaign=yelp_api_v3&utm_medium=api_v3_business_search&utm_source=TqzhtA42spPSKOmzDuw9JA", "review_count": 597, "categories": [{"alias": "pizza", "title": "Pizza"}, {"alias": "italian", "title": "Italian"}], "rating": 4.0, "coordinates": {"latitude": 40.74337, "longitude": -73.99153}, "transactions": ["pickup", "delivery"], "price": "$$", "location": {"address1": "49 W 24th St", "address2": "", "address3": "", "city": "New York", "zip_code": "10010", "country": "US", "state": "NY", "display_address": ["49 W 24th St", "New York, NY 10010"]}, "phone": "+12128079200", "display_phone": "(212) 807-9200", "distance": 2540.45692095897}, {"id": "V3USzFEGhuoXez4G2Rk11A", "alias": "tavola-new-york", "name": "Tavola", "image_url": "https://s3-media1.fl.yelpcdn.com/bphoto/HhhlKQchXV9dhvgGgNH1Bw/o.jpg", "is_closed": false, "url": "https://www.yelp.com/biz/tavola-new-york?adjust_creative=TqzhtA42spPSKOmzDuw9JA&utm_campaign=yelp_api_v3&utm_medium=api_v3_business_search&utm_source=TqzhtA42spPSKOmzDuw9JA", "review_count": 1461, "categories": [{"alias": "italian", "title": "Italian"}, {"alias": "pizza", "title": "Pizza"}, {"alias": "wine_bars", "title": "Wine Bars"}], "rating": 4.1, "coordinates": {"latitude": 40.755403, "longitude": -73.994516}, "transactions": ["pickup", "delivery", "restaurant_reservation"], "price": "$$$", "location": {"address1": "488 9th Ave", "address2": "", "address3": "", "city": "New York", "zip_code": "10018", "country": "US", "state": "NY", "display_address": ["488 9th Ave", "New York, NY 10018"]}, "phone": "+12122731181", "display_phone": "(212) 273-1181", "distance": 2142.271898883068}, {"id": "qJLXjq2SU36SWNm7yLKX6g", "alias": "made-in-new-york-pizza-new-york-10", "name": "Made In New York Pizza", "image_url": "https://s3-media2.fl.yelpcdn.com/bphoto/u3MTtHcJvFg2_rcJOTWGgw/o.jpg", "is_closed": false, "url": "https://www.yelp.com/biz/made-in-new-york-pizza-new-york-10?adjust_creative=TqzhtA42spPSKOmzDuw9JA&utm_campaign=yelp_api_v3&utm_medium=api_v3_business_search&utm_source=TqzhtA42spPSKOmzDuw9JA", "review_count": 21, "categories": [{"alias": "pizza", "title": "Pizza"}], "rating": 4.4, "coordinates": {"latitude": 40.75338419929282, "longitude": -73.98912208502163}, "transactions": ["pickup", "delivery"], "location": {"address1": "512 7th Ave", "address2": "", "address3": null, "city": "New York", "zip_code": "10018", "country": "US", "state": "NY", "display_address": ["512 7th Ave", "New York, NY 10018"]}, "phone": "", "display_phone": "", "distance": 1767.9412927308206}, {"id": "G77Q6kU-7qRefColCRTS0w", "alias": "robertas-brooklyn-5", "name": "Roberta's", "image_url": "https://s3-media2.fl.yelpcdn.com/bphoto/naIec6omkhoRe6JWRFm8JQ/o.jpg", "is_closed": false, "url": "https://www.yelp.com/biz/robertas-brooklyn-5?adjust_creative=TqzhtA42spPSKOmzDuw9JA&utm_campaign=yelp_api_v3&utm_medium=api_v3_business_search&utm_source=TqzhtA42spPSKOmzDuw9JA", "review_count": 123, "categories": [{"alias": "pizza", "title": "Pizza"}], "rating": 3.9, "coordinates": {"latitude": 40.71618788546057, "longitude": -73.96651754323669}, "transactions": ["pickup", "delivery"], "location": {"address1": "6 Grand St", "address2": "", "address3": null, "city": "Brooklyn", "zip_code": "11249", "country": "US", "state": "NY", "display_address": ["6 Grand St", "Brooklyn, NY 11249"]}, "phone": "+17182782400", "display_phone": "(718) 278-2400", "distance": 4786.842697753621}, {"id": "naVoQ-4hG0bWR3y9LbhWyQ", "alias": "aces-pizza-new-york", "name": "Ace's Pizza", "image_url": "https://s3-media2.fl.yelpcdn.com/bphoto/ul0SvukzSRvvanIHTeEeFw/o.jpg", "is_closed": false, "url": "https://www.yelp.com/biz/aces-pizza-new-york?adjust_creative=TqzhtA42spPSKOmzDuw9JA&utm_campaign=yelp_api_v3&utm_medium=api_v3_business_search&utm_source=TqzhtA42spPSKOmzDuw9JA", "review_count": 80, "categories": [{"alias": "pizza", "title": "Pizza"}], "rating": 4.4, "coordinates": {"latitude": 40.75939349861115, "longitude": -73.9799726}, "transactions": ["pickup", "delivery"], "price": "$$", "location": {"address1": "30 Rockefeller Plz", "address2": "", "address3": null, "city": "New York", "zip_code": "10112", "country": "US", "state": "NY", "display_address": ["30 Rockefeller Plz", "New York, NY 10112"]}, "phone": "", "display_phone": "", "distance": 876.167534715313}, {"id": "-Zebvg7OAy1YgWRwIw7Ogg", "alias": "samaria-pizza-astoria-2", "name": "Samaria Pizza", "image_url": "https://s3-media4.fl.yelpcdn.com/bphoto/iCNh8XKo5YcbW6Kk6NPLLw/o.jpg", "is_closed": false, "url": "https://www.yelp.com/biz/samaria-pizza-astoria-2?adjust_creative=TqzhtA42spPSKOmzDuw9JA&utm_campaign=yelp_api_v3&utm_medium=api_v3_business_search&utm_source=TqzhtA42spPSKOmzDuw9JA", "review_count": 81, "categories": [{"alias": "pizza", "title": "Pizza"}], "rating": 4.3, "coordinates": {"latitude": 40.765664798585, "longitude": -73.930791735236}, "transactions": ["pickup", "delivery"], "price": "$", "location": {"address1": "2107 Broadway", "address2": "", "address3": "", "city": "Astoria", "zip_code": "11106", "country": "US", "state": "NY", "display_address": ["2107 Broadway", "Astoria, NY 11106"]}, "phone": "+17185455304", "display_phone": "(718) 545-5304", "distance": 3345.073721832089}, {"id": "S6YZwgJ8dky34wa-yTX1tA", "alias": "emmy-squared-pizza-midtown-west-new-york", "name": "Emmy Squared Pizza - Midtown West", "image_url": "https://s3-media2.fl.yelpcdn.com/bphoto/q2p0dGb5MbtCckp7jx8CLw/o.jpg", "is_closed": false, "url": "https://www.yelp.com/biz/emmy-squared-pizza-midtown-west-new-york?adjust_creative=TqzhtA42spPSKOmzDuw9JA&utm_campaign=yelp_api_v3&utm_medium=api_v3_business_search&utm_source=TqzhtA42spPSKOmzDuw9JA", "review_count": 70, "categories": [{"alias": "pizza", "title": "Pizza"}, {"alias": "burgers", "title": "Burgers"}], "rating": 3.9, "coordinates": {"latitude": 40.770985811318106, "longitude": -73.9875843}, "transactions": ["pickup", "delivery"], "location": {"address1": "200 West 60th St", "address2": null, "address3": "", "city": "New York", "zip_code": "10023", "country": "US", "state": "NY", "display_address": ["200 West 60th St", "New York, NY 10023"]}, "phone": "+19299893669", "display_phone": "(929) 989-3669", "distance": 2006.3692590844382}, {"id": "I8l0mLvq-qECIlTsgcxQNA", "alias": "royal-napoli-pizza-new-york", "name": "Royal Napoli Pizza", "image_url": "https://s3-media3.fl.yelpcdn.com/bphoto/EhEGYtTpP54bvYQFWmo0Mg/o.jpg", "is_closed": false, "url": "https://www.yelp.com/biz/royal-napoli-pizza-new-york?adjust_creative=TqzhtA42spPSKOmzDuw9JA&utm_campaign=yelp_api_v3&utm_medium=api_v3_business_search&utm_source=TqzhtA42spPSKOmzDuw9JA", "review_count": 14, "categories": [{"alias": "pizza", "title": "Pizza"}], "rating": 4.4, "coordinates": {"latitude": 40.763084, "longitude": -73.993308}, "transactions": ["pickup", "delivery"], "location": {"address1": "691 10th Ave", "address2": "", "address3": null, "city": "New York", "zip_code": "10036", "country": "US", "state": "NY", "display_address": ["691 10th Ave", "New York, NY 10036"]}, "phone": "+16464762760", "display_phone": "(646) 476-2760", "distance": 2047.5210887251374}, {"id": "JOvcJqD5eCFrGjFa6k7vpQ", "alias": "zia-maria-chelsea-new-york-2", "name": "Zia Maria - Chelsea", "image_url": "https://s3-media2.fl.yelpcdn.com/bphoto/A2TFeyLpQ11MR563dsw0Dg/o.jpg", "is_closed": false, "url": "https://www.yelp.com/biz/zia-maria-chelsea-new-york-2?adjust_creative=TqzhtA42spPSKOmzDuw9JA&utm_campaign=yelp_api_v3&utm_medium=api_v3_business_search&utm_source=TqzhtA42spPSKOmzDuw9JA", "review_count": 374, "categories": [{"alias": "italian", "title": "Italian"}, {"alias": "pizza", "title": "Pizza"}, {"alias": "cocktailbars", "title": "Cocktail Bars"}], "rating": 4.1, "coordinates": {"latitude": 40.7454863, "longitude": -73.9993392}, "transactions": ["pickup", "delivery", "restaurant_reservation"], "price": "$$", "location": {"address1": "318 W 23rd St", "address2": "", "address3": "", "city": "New York", "zip_code": "10011", "country": "US", "state": "NY", "display_address": ["318 W 23rd St", "New York, NY 10011"]}, "phone": "+12125249200", "display_phone": "(212) 524-9200", "distance": 2937.8596166556135}, {"id": "2ggi1luerd3Mf_C82JvCYg", "alias": "grimaldis-pizzeria-brooklyn-4", "name": "Grimaldi's Pizzeria", "image_url": "https://s3-media1.fl.yelpcdn.com/bphoto/-vwbIOY8hlTeWnrS74jQMg/o.jpg", "is_closed": false, "url": "https://www.yelp.com/biz/grimaldis-pizzeria-brooklyn-4?adjust_creative=TqzhtA42spPSKOmzDuw9JA&utm_campaign=yelp_api_v3&utm_medium=api_v3_business_search&utm_source=TqzhtA42spPSKOmzDuw9JA", "review_count": 5040, "categories": [{"alias": "pizza", "title": "Pizza"}, {"alias": "desserts", "title": "Desserts"}, {"alias": "beer_and_wine", "title": "Beer, Wine & Spirits"}], "rating": 3.6, "coordinates": {"latitude": 40.7026459, "longitude": -73.9932413}, "transactions": ["pickup", "delivery"], "price": "$$", "location": {"address1": "1 Front St", "address2": "", "address3": "", "city": "Brooklyn", "zip_code": "11201", "country": "US", "state": "NY", "display_address": ["1 Front St", "Brooklyn, NY 11201"]}, "phone": "+17188584300", "display_phone": "(718) 858-4300", "distance": 6594.478770237103}, {"id": "42DvyoCwh6QcNA7URLiLkQ", "alias": "nuovo-york-pizza-new-york", "name": "Nuovo York Pizza", "image_url": "https://s3-media3.fl.yelpcdn.com/bphoto/k95fbCD1ZddiN1jRMPPtYA/o.jpg", "is_closed": false, "url": "https://www.yelp.com/biz/nuovo-york-pizza-new-york?adjust_creative=TqzhtA42spPSKOmzDuw9JA&utm_campaign=yelp_api_v3&utm_medium=api_v3_business_search&utm_source=TqzhtA42spPSKOmzDuw9JA", "review_count": 52, "categories": [{"alias": "pizza", "title": "Pizza"}], "rating": 4.6, "coordinates": {"latitude": 40.7305, "longitude": -73.99008}, "transactions": ["pickup", "delivery"], "location": {"address1": "105 E 9th St", "address2": "", "address3": null, "city": "New York", "zip_code": "10003", "country": "US", "state": "NY", "display_address": ["105 E 9th St", "New York, NY 10003"]}, "phone": "+16464762428", "display_phone": "(646) 476-2428", "distance": 3622.864863418506}, {"id": "PBlE7pOFIV7U_mIb1rTN_Q", "alias": "robertas-new-york-5", "name": "Roberta's", "image_url": "https://s3-media1.fl.yelpcdn.com/bphoto/Xo-JGSFb_D4LKZQxcHNzUg/o.jpg", "is_closed": false, "url": "https://www.yelp.com/biz/robertas-new-york-5?adjust_creative=TqzhtA42spPSKOmzDuw9JA&utm_campaign=yelp_api_v3&utm_medium=api_v3_business_search&utm_source=TqzhtA42spPSKOmzDuw9JA", "review_count": 2, "categories": [{"alias": "pizza", "title": "Pizza"}], "rating": 5.0, "coordinates": {"latitude": 40.75057, "longitude": -73.99204}, "transactions": [], "location": {"address1": "1 Pennsylvania Plz", "address2": "", "address3": null, "city": "New York", "zip_code": "10119", "country": "US", "state": "NY", "display_address": ["1 Pennsylvania Plz", "New York, NY 10119"]}, "phone": "", "display_phone": "", "distance": 2095.3235005456304}, {"id": "-CCfu19Uuy_kD2t4ZwsQfA", "alias": "village-square-pizza-new-york-3", "name": "Village Square Pizza", "image_url": "https://s3-media4.fl.yelpcdn.com/bphoto/Q4LzlqEF6ezh8S5t73TpRw/o.jpg", "is_closed": false, "url": "https://www.yelp.com/biz/village-square-pizza-new-york-3?adjust_creative=TqzhtA42spPSKOmzDuw9JA&utm_campaign=yelp_api_v3&utm_medium=api_v3_business_search&utm_source=TqzhtA42spPSKOmzDuw9JA", "review_count": 325, "categories": [{"alias": "pizza", "title": "Pizza"}], "rating": 4.4, "coordinates": {"latitude": 40.72748, "longitude": -73.98268}, "transactions": ["pickup", "delivery"], "price": "$", "location": {"address1": "147 Ave A", "address2": null, "address3": "", "city": "New York", "zip_code": "10009", "country": "US", "state": "NY", "display_address": ["147 Ave A", "New York, NY 10009"]}, "phone": "+19176757709", "display_phone": "(917) 675-7709", "distance": 3690.8579138874898}, {"id": "EOiHjv2woLi0kUov0ZGhwQ", "alias": "markos-pizzeria-new-york", "name": "Marko's Pizzeria", "image_url": "https://s3-media3.fl.yelpcdn.com/bphoto/3iUHbRq3snJ3uOXDwGwr3A/o.jpg", "is_closed": false, "url": "https://www.yelp.com/biz/markos-pizzeria-new-york?adjust_creative=TqzhtA42spPSKOmzDuw9JA&utm_campaign=yelp_api_v3&utm_medium=api_v3_business_search&utm_source=TqzhtA42spPSKOmzDuw9JA", "review_count": 6, "categories": [{"alias": "pizza", "title": "Pizza"}, {"alias": "italian", "title": "Italian"}, {"alias": "cafes", "title": "Cafes"}], "rating": 4.0, "coordinates": {"latitude": 40.73721, "longitude": -73.9741}, "transactions": ["pickup", "delivery"], "location": {"address1": "25 Waterside Plz", "address2": null, "address3": "", "city": "New York", "zip_code": "10010", "country": "US", "state": "NY", "display_address": ["25 Waterside Plz", "New York, NY 10010"]}, "phone": "+19175651291", "display_phone": "(917) 565-1291", "distance": 2430.230387152591}, {"id": "vmUNPvduTeWu24d--TbHAg", "alias": "ops-brooklyn", "name": "Ops", "image_url": "https://s3-media2.fl.yelpcdn.com/bphoto/VB_JnJR7OPpB34RRJzMDtw/o.jpg", "is_closed": false, "url": "https://www.yelp.com/biz/ops-brooklyn?adjust_creative=TqzhtA42spPSKOmzDuw9JA&utm_campaign=yelp_api_v3&utm_medium=api_v3_business_search&utm_source=TqzhtA42spPSKOmzDuw9JA", "review_count": 217, "categories": [{"alias": "pizza", "title": "Pizza"}, {"alias": "wine_bars", "title": "Wine Bars"}, {"alias": "breakfast_brunch", "title": "Breakfast & Brunch"}], "rating": 4.3, "coordinates": {"latitude": 40.7025466114283, "longitude": -73.9173419773579}, "transactions": ["delivery"], "price": "$$", "location": {"address1": "346 Himrod St", "address2": null, "address3": "", "city": "Brooklyn", "zip_code": "11237", "country": "US", "state": "NY", "display_address": ["346 Himrod St", "Brooklyn, NY 11237"]}, "phone": "+17183864009", "display_phone": "(718) 386-4009", "distance": 7681.756056699486}, {"id": "RfFXF-Momn0tLIgh1TZKLw", "alias": "di-fara-pizza-new-york-2", "name": "Di Fara Pizza", "image_url": "https://s3-media3.fl.yelpcdn.com/bphoto/SaWdpz9ZL003jQBI1LZooQ/o.jpg", "is_closed": false, "url": "https://www.yelp.com/biz/di-fara-pizza-new-york-2?adjust_creative=TqzhtA42spPSKOmzDuw9JA&utm_campaign=yelp_api_v3&utm_medium=api_v3_business_search&utm_source=TqzhtA42spPSKOmzDuw9JA", "review_count": 82, "categories": [{"alias": "pizza", "title": "Pizza"}], "rating": 3.6, "coordinates": {"latitude": 40.706894091267536, "longitude": -74.00184964894031}, "transactions": ["pickup", "delivery"], "location": {"address1": "108 South St", "address2": "", "address3": null, "city": "New York", "zip_code": "10038", "country": "US", "state": "NY", "display_address": ["108 South St", "New York, NY 10038"]}, "phone": "+19173883130", "display_phone": "(917) 388-3130", "distance": 6417.987529861121}, {"id": "fowyb5DnUydqFodInCQyQQ", "alias": "centro-pizza-bar-and-italian-kitchen-long-island-city", "name": "Centro Pizza Bar & Italian Kitchen", "image_url": "https://s3-media1.fl.yelpcdn.com/bphoto/jyXMfVY8ZICBN5KlyJmlyQ/o.jpg", "is_closed": false, "url": "https://www.yelp.com/biz/centro-pizza-bar-and-italian-kitchen-long-island-city?adjust_creative=TqzhtA42spPSKOmzDuw9JA&utm_campaign=yelp_api_v3&utm_medium=api_v3_business_search&utm_source=TqzhtA42spPSKOmzDuw9JA", "review_count": 228, "categories": [{"alias": "pizza", "title": "Pizza"}, {"alias": "italian", "title": "Italian"}, {"alias": "salad", "title": "Salad"}], "rating": 3.7, "coordinates": {"latitude": 40.74494463643489, "longitude": -73.95312334111576}, "transactions": ["pickup", "delivery"], "price": "$", "location": {"address1": "47-23 Vernon Blvd", "address2": "", "address3": null, "city": "Long Island City", "zip_code": "11101", "country": "US", "state": "NY", "display_address": ["47-23 Vernon Blvd", "Long Island City, NY 11101"]}, "phone": "+17183611965", "display_phone": "(718) 361-1965", "distance": 2103.3086301694907}, {"id": "HpjArOwDD0ddcD2cvCDp6Q", "alias": "little-italy-pizza-new-york-17", "name": "Little Italy Pizza", "image_url": "https://s3-media1.fl.yelpcdn.com/bphoto/fhBP9RlXUGWnq51-xvHI9A/o.jpg", "is_closed": false, "url": "https://www.yelp.com/biz/little-italy-pizza-new-york-17?adjust_creative=TqzhtA42spPSKOmzDuw9JA&utm_campaign=yelp_api_v3&utm_medium=api_v3_business_search&utm_source=TqzhtA42spPSKOmzDuw9JA", "review_count": 349, "categories": [{"alias": "pizza", "title": "Pizza"}, {"alias": "italian", "title": "Italian"}], "rating": 4.0, "coordinates": {"latitude": 40.7918751922647, "longitude": -73.9735541478506}, "transactions": ["pickup", "delivery"], "price": "$", "location": {"address1": "2476 Broadway", "address2": "", "address3": "", "city": "New York", "zip_code": "10025", "country": "US", "state": "NY", "display_address": ["2476 Broadway", "New York, NY 10025"]}, "phone": "+12127876700", "display_phone": "(212) 787-6700", "distance": 3651.537241673325}, {"id": "VLpXSDyK5yhhfFOs9OM20A", "alias": "famous-famiglia-pizzeria-new-york-12", "name": "Famous Famiglia Pizzeria", "image_url": "https://s3-media2.fl.yelpcdn.com/bphoto/fbYlzQ2m-gRwAG3Ygdr2yA/o.jpg", "is_closed": false, "url": "https://www.yelp.com/biz/famous-famiglia-pizzeria-new-york-12?adjust_creative=TqzhtA42spPSKOmzDuw9JA&utm_campaign=yelp_api_v3&utm_medium=api_v3_business_search&utm_source=TqzhtA42spPSKOmzDuw9JA", "review_count": 112, "categories": [{"alias": "pizza", "title": "Pizza"}], "rating": 3.8, "coordinates": {"latitude": 40.778337, "longitude": -73.956623}, "transactions": ["pickup", "delivery"], "price": "$", "location": {"address1": "1248 Lexington Ave", "address2": "", "address3": null, "city": "New York", "zip_code": "10028", "country": "US", "state": "NY", "display_address": ["1248 Lexington Ave", "New York, NY 10028"]}, "phone": "+12127377777", "display_phone": "(212) 737-7777", "distance": 2393.657484363149}, {"id": "Md80AwdvKpZXYiSCsVhegA", "alias": "slice-lic-long-island-city", "name": "sLICe LIC", "image_url": "https://s3-media2.fl.yelpcdn.com/bphoto/XRu8YsoGQqPkFCdIb47JBw/o.jpg", "is_closed": false, "url": "https://www.yelp.com/biz/slice-lic-long-island-city?adjust_creative=TqzhtA42spPSKOmzDuw9JA&utm_campaign=yelp_api_v3&utm_medium=api_v3_business_search&utm_source=TqzhtA42spPSKOmzDuw9JA", "review_count": 494, "categories": [{"alias": "italian", "title": "Italian"}, {"alias": "pizza", "title": "Pizza"}], "rating": 3.4, "coordinates": {"latitude": 40.74367, "longitude": -73.95345}, "transactions": ["pickup", "delivery"], "price": "$", "location": {"address1": "48-11 Vernon Blvd", "address2": "", "address3": "", "city": "Long Island City", "zip_code": "11101", "country": "US", "state": "NY", "display_address": ["48-11 Vernon Blvd", "Long Island City, NY 11101"]}, "phone": "+17189375423", "display_phone": "(718) 937-5423", "distance": 2185.8533766319592}, {"id": "H8qcX7MNNnC1bqE0LnIhKg", "alias": "sim\u00f2-pizza-new-york-14", "name": "Sim\u00f2 Pizza", "image_url": "https://s3-media4.fl.yelpcdn.com/bphoto/Z5FXhqljOVfRaqQvDRqnRA/o.jpg", "is_closed": false, "url": "https://www.yelp.com/biz/sim%C3%B2-pizza-new-york-14?adjust_creative=TqzhtA42spPSKOmzDuw9JA&utm_campaign=yelp_api_v3&utm_medium=api_v3_business_search&utm_source=TqzhtA42spPSKOmzDuw9JA", "review_count": 263, "categories": [{"alias": "pizza", "title": "Pizza"}, {"alias": "italian", "title": "Italian"}, {"alias": "desserts", "title": "Desserts"}], "rating": 4.5, "coordinates": {"latitude": 40.7392597584612, "longitude": -74.0088130692187}, "transactions": ["pickup", "delivery"], "price": "$$", "location": {"address1": "90-92 Gansevoort St", "address2": "", "address3": null, "city": "New York", "zip_code": "10014", "country": "US", "state": "NY", "display_address": ["90-92 Gansevoort St", "New York, NY 10014"]}, "phone": "+12124622703", "display_phone": "(212) 462-2703", "distance": 3978.6469277909596}, {"id": "jwm0nFfAmByaiMSL4ri7dg", "alias": "cassianos-new-york", "name": "Cassiano's", "image_url": "https://s3-media2.fl.yelpcdn.com/bphoto/L8XAtqwWBbuauqKlfiexNQ/o.jpg", "is_closed": false, "url": "https://www.yelp.com/biz/cassianos-new-york?adjust_creative=TqzhtA42spPSKOmzDuw9JA&utm_campaign=yelp_api_v3&utm_medium=api_v3_business_search&utm_source=TqzhtA42spPSKOmzDuw9JA", "review_count": 139, "categories": [{"alias": "pizza", "title": "Pizza"}, {"alias": "pastashops", "title": "Pasta Shops"}], "rating": 3.0, "coordinates": {"latitude": 40.7595532, "longitude": -73.968069}, "transactions": ["pickup", "delivery"], "price": "$", "location": {"address1": "930 3rd Ave", "address2": "", "address3": "", "city": "New York", "zip_code": "10022", "country": "US", "state": "NY", "display_address": ["930 3rd Ave", "New York, NY 10022"]}, "phone": "+12127552390", "display_phone": "(212) 755-2390", "distance": 133.56139353645273}, {"id": "s3RRbwzVtTJnyUpBPV4W6A", "alias": "famous-original-rays-pizza-new-york-8", "name": "Famous Original Ray's Pizza", "image_url": "https://s3-media4.fl.yelpcdn.com/bphoto/kdQaYmi4mhGDaqA54FenfQ/o.jpg", "is_closed": false, "url": "https://www.yelp.com/biz/famous-original-rays-pizza-new-york-8?adjust_creative=TqzhtA42spPSKOmzDuw9JA&utm_campaign=yelp_api_v3&utm_medium=api_v3_business_search&utm_source=TqzhtA42spPSKOmzDuw9JA", "review_count": 100, "categories": [{"alias": "pizza", "title": "Pizza"}, {"alias": "italian", "title": "Italian"}], "rating": 2.6, "coordinates": {"latitude": 40.764274, "longitude": -73.966392}, "transactions": ["delivery", "pickup"], "price": "$", "location": {"address1": "811 Lexington Ave", "address2": "", "address3": "", "city": "New York", "zip_code": "10021", "country": "US", "state": "NY", "display_address": ["811 Lexington Ave", "New York, NY 10021"]}, "phone": "+12122238116", "display_phone": "(212) 223-8116", "distance": 627.4004492914925}, {"id": "L4ybHcszd--ILcP8wDdPdQ", "alias": "ledo-pizza-new-york", "name": "Ledo Pizza Manhattan, NY - Midtown West", "image_url": "https://s3-media2.fl.yelpcdn.com/bphoto/LLVNTm5tAT6u6-z215neug/o.jpg", "is_closed": false, "url": "https://www.yelp.com/biz/ledo-pizza-new-york?adjust_creative=TqzhtA42spPSKOmzDuw9JA&utm_campaign=yelp_api_v3&utm_medium=api_v3_business_search&utm_source=TqzhtA42spPSKOmzDuw9JA", "review_count": 54, "categories": [{"alias": "pizza", "title": "Pizza"}, {"alias": "italian", "title": "Italian"}, {"alias": "salad", "title": "Salad"}], "rating": 4.5, "coordinates": {"latitude": 40.75427679, "longitude": -73.99027557}, "transactions": ["delivery", "pickup"], "location": {"address1": "243 W 38th St", "address2": "", "address3": "", "city": "New York", "zip_code": "10018", "country": "US", "state": "NY", "display_address": ["243 W 38th St", "New York, NY 10018"]}, "phone": "+12125615847", "display_phone": "(212) 561-5847", "distance": 1826.7453810311158}, {"id": "e8Xw_TxPHLKB4tStjS_rJQ", "alias": "heritage-grand-restaurant-and-pizza-bar-new-york", "name": "Heritage Grand Restaurant & Pizza Bar", "image_url": "https://s3-media1.fl.yelpcdn.com/bphoto/FhytoMOPeNQqrla6JbsC-w/o.jpg", "is_closed": false, "url": "https://www.yelp.com/biz/heritage-grand-restaurant-and-pizza-bar-new-york?adjust_creative=TqzhtA42spPSKOmzDuw9JA&utm_campaign=yelp_api_v3&utm_medium=api_v3_business_search&utm_source=TqzhtA42spPSKOmzDuw9JA", "review_count": 39, "categories": [{"alias": "pizza", "title": "Pizza"}, {"alias": "bars", "title": "Bars"}], "rating": 4.5, "coordinates": {"latitude": 40.752312, "longitude": -73.982668}, "transactions": [], "price": "$$$", "location": {"address1": "8 W 40th St", "address2": "", "address3": null, "city": "New York", "zip_code": "10018", "country": "US", "state": "NY", "display_address": ["8 W 40th St", "New York, NY 10018"]}, "phone": "+12124199163", "display_phone": "(212) 419-9163", "distance": 1342.163709034074}, {"id": "UB1mGugr1pvgUUP1eTNXrg", "alias": "stone-bridge-pizza-and-salad-new-york", "name": "Stone Bridge Pizza & Salad", "image_url": "https://s3-media1.fl.yelpcdn.com/bphoto/yfY3OA1Zd1GWBnbeZoWB8w/o.jpg", "is_closed": false, "url": "https://www.yelp.com/biz/stone-bridge-pizza-and-salad-new-york?adjust_creative=TqzhtA42spPSKOmzDuw9JA&utm_campaign=yelp_api_v3&utm_medium=api_v3_business_search&utm_source=TqzhtA42spPSKOmzDuw9JA", "review_count": 341, "categories": [{"alias": "pizza", "title": "Pizza"}, {"alias": "salad", "title": "Salad"}, {"alias": "sandwiches", "title": "Sandwiches"}], "rating": 4.5, "coordinates": {"latitude": 40.75225, "longitude": -73.98061}, "transactions": ["delivery", "pickup"], "price": "$$", "location": {"address1": "16 E 41st St", "address2": null, "address3": "", "city": "New York", "zip_code": "10017", "country": "US", "state": "NY", "display_address": ["16 E 41st St", "New York, NY 10017"]}, "phone": "+16467915690", "display_phone": "(646) 791-5690", "distance": 1207.7148971914448}, {"id": "BBFgsOPeOwCVrvfjrE9F_Q", "alias": "village-square-pizza-midtown-new-york-2", "name": "Village Square Pizza - Midtown", "image_url": "https://s3-media4.fl.yelpcdn.com/bphoto/yaFuFW5k_82_6giunbOcvg/o.jpg", "is_closed": false, "url": "https://www.yelp.com/biz/village-square-pizza-midtown-new-york-2?adjust_creative=TqzhtA42spPSKOmzDuw9JA&utm_campaign=yelp_api_v3&utm_medium=api_v3_business_search&utm_source=TqzhtA42spPSKOmzDuw9JA", "review_count": 6, "categories": [{"alias": "pizza", "title": "Pizza"}], "rating": 5.0, "coordinates": {"latitude": 40.75147835422662, "longitude": -73.98907701714205}, "transactions": ["delivery", "pickup"], "location": {"address1": "147 W 35th St", "address2": null, "address3": "", "city": "New York", "zip_code": "10001", "country": "US", "state": "NY", "display_address": ["147 W 35th St", "New York, NY 10001"]}, "phone": "+12125007591", "display_phone": "(212) 500-7591", "distance": 1852.3006026699416}, {"id": "JSMbeYk4z17jt80DuHaYRQ", "alias": "1-50-fresh-pizza-new-york", "name": "$1.50 Fresh Pizza", "image_url": "https://s3-media2.fl.yelpcdn.com/bphoto/M7CgO2YvnAwAwB7q8PkXpg/o.jpg", "is_closed": false, "url": "https://www.yelp.com/biz/1-50-fresh-pizza-new-york?adjust_creative=TqzhtA42spPSKOmzDuw9JA&utm_campaign=yelp_api_v3&utm_medium=api_v3_business_search&utm_source=TqzhtA42spPSKOmzDuw9JA", "review_count": 316, "categories": [{"alias": "pizza", "title": "Pizza"}], "rating": 3.9, "coordinates": {"latitude": 40.7517, "longitude": -73.97432}, "transactions": ["delivery", "pickup"], "price": "$", "location": {"address1": "151 E 43rd St", "address2": "", "address3": "", "city": "New York", "zip_code": "10017", "country": "US", "state": "NY", "display_address": ["151 E 43rd St", "New York, NY 10017"]}, "phone": "+12129220257", "display_phone": "(212) 922-0257", "distance": 920.7045681669276}, {"id": "MEz44tgJJ6GNg-RN2H84zg", "alias": "bellucci-pizza-astoria-2", "name": "Bellucci Pizza", "image_url": "https://s3-media4.fl.yelpcdn.com/bphoto/uaR41jjBGyFRYTooy024Ew/o.jpg", "is_closed": false, "url": "https://www.yelp.com/biz/bellucci-pizza-astoria-2?adjust_creative=TqzhtA42spPSKOmzDuw9JA&utm_campaign=yelp_api_v3&utm_medium=api_v3_business_search&utm_source=TqzhtA42spPSKOmzDuw9JA", "review_count": 188, "categories": [{"alias": "pizza", "title": "Pizza"}], "rating": 4.3, "coordinates": {"latitude": 40.76772937223715, "longitude": -73.9234633428848}, "transactions": ["delivery", "pickup"], "location": {"address1": "2904 30th Ave", "address2": null, "address3": "", "city": "Astoria", "zip_code": "11102", "country": "US", "state": "NY", "display_address": ["2904 30th Ave", "Astoria, NY 11102"]}, "phone": "+17189711074", "display_phone": "(718) 971-1074", "distance": 3998.25218595845}, {"id": "MGBFibk55nVIGsIV5zZtkw", "alias": "previti-pizza-41st-st-new-york", "name": "Previti Pizza 41st St", "image_url": "https://s3-media4.fl.yelpcdn.com/bphoto/hgZSrP4S_vv3Dv8FL0pY2w/o.jpg", "is_closed": false, "url": "https://www.yelp.com/biz/previti-pizza-41st-st-new-york?adjust_creative=TqzhtA42spPSKOmzDuw9JA&utm_campaign=yelp_api_v3&utm_medium=api_v3_business_search&utm_source=TqzhtA42spPSKOmzDuw9JA", "review_count": 458, "categories": [{"alias": "pizza", "title": "Pizza"}, {"alias": "beerbar", "title": "Beer Bar"}, {"alias": "sandwiches", "title": "Sandwiches"}], "rating": 4.0, "coordinates": {"latitude": 40.7509380299598, "longitude": -73.9767879766344}, "transactions": ["delivery", "pickup"], "price": "$", "location": {"address1": "123 E 41st St", "address2": "", "address3": "", "city": "New York", "zip_code": "10168", "country": "US", "state": "NY", "display_address": ["123 E 41st St", "New York, NY 10168"]}, "phone": "+12125574992", "display_phone": "(212) 557-4992", "distance": 1099.116295504186}, {"id": "Qr9FJkZAzav9px3xsEf1yQ", "alias": "norms-pizza-new-york", "name": "Norm's Pizza", "image_url": "https://s3-media2.fl.yelpcdn.com/bphoto/fQmKa1TxZlIudVp_CS84hw/o.jpg", "is_closed": false, "url": "https://www.yelp.com/biz/norms-pizza-new-york?adjust_creative=TqzhtA42spPSKOmzDuw9JA&utm_campaign=yelp_api_v3&utm_medium=api_v3_business_search&utm_source=TqzhtA42spPSKOmzDuw9JA", "review_count": 15, "categories": [{"alias": "pizza", "title": "Pizza"}], "rating": 4.9, "coordinates": {"latitude": 40.71008448698627, "longitude": -74.0103149}, "transactions": ["delivery", "pickup"], "location": {"address1": "8 Cortlandt St", "address2": null, "address3": "", "city": "New York", "zip_code": "10007", "country": "US", "state": "NY", "display_address": ["8 Cortlandt St", "New York, NY 10007"]}, "phone": "+16466492692", "display_phone": "(646) 649-2692", "distance": 6448.215327687419}, {"id": "8ZZz2PXIXIA6OmpIZpI4aQ", "alias": "traditas-pizza-new-york-2", "name": "Traditas Pizza", "image_url": "https://s3-media1.fl.yelpcdn.com/bphoto/i68vjJHbs5puPzJmCQUdng/o.jpg", "is_closed": false, "url": "https://www.yelp.com/biz/traditas-pizza-new-york-2?adjust_creative=TqzhtA42spPSKOmzDuw9JA&utm_campaign=yelp_api_v3&utm_medium=api_v3_business_search&utm_source=TqzhtA42spPSKOmzDuw9JA", "review_count": 48, "categories": [{"alias": "pizza", "title": "Pizza"}], "rating": 4.6, "coordinates": {"latitude": 40.74492477717995, "longitude": -73.98894602258976}, "transactions": ["delivery", "pickup"], "location": {"address1": "1165 Broadway", "address2": "", "address3": null, "city": "New York", "zip_code": "10001", "country": "US", "state": "NY", "display_address": ["1165 Broadway", "New York, NY 10001"]}, "phone": "+19292740000", "display_phone": "(929) 274-0000", "distance": 2274.5249635317446}, {"id": "77q5bM4bXA63BqGwN-Cy2Q", "alias": "joes-pizza-new-york-110", "name": "Joe's Pizza", "image_url": "https://s3-media4.fl.yelpcdn.com/bphoto/RaDxJoET3ysJUqyZh26kvA/o.jpg", "is_closed": false, "url": "https://www.yelp.com/biz/joes-pizza-new-york-110?adjust_creative=TqzhtA42spPSKOmzDuw9JA&utm_campaign=yelp_api_v3&utm_medium=api_v3_business_search&utm_source=TqzhtA42spPSKOmzDuw9JA", "review_count": 103, "categories": [{"alias": "pizza", "title": "Pizza"}], "rating": 2.9, "coordinates": {"latitude": 40.7439080906573, "longitude": -73.9997112751007}, "transactions": ["delivery", "pickup"], "price": "$", "location": {"address1": "211 8th Ave", "address2": "", "address3": "", "city": "New York", "zip_code": "10011", "country": "US", "state": "NY", "display_address": ["211 8th Ave", "New York, NY 10011"]}, "phone": "+12122433226", "display_phone": "(212) 243-3226", "distance": 3053.9086811521197}, {"id": "aP1Nwq1-7j0Y7hr7oavY2A", "alias": "upside-pizza-new-york-2", "name": "Upside Pizza", "image_url": "https://s3-media3.fl.yelpcdn.com/bphoto/mXD-n62PR0vnuBMm2ESH9A/o.jpg", "is_closed": false, "url": "https://www.yelp.com/biz/upside-pizza-new-york-2?adjust_creative=TqzhtA42spPSKOmzDuw9JA&utm_campaign=yelp_api_v3&utm_medium=api_v3_business_search&utm_source=TqzhtA42spPSKOmzDuw9JA", "review_count": 178, "categories": [{"alias": "pizza", "title": "Pizza"}], "rating": 4.2, "coordinates": {"latitude": 40.722115, "longitude": -73.996407}, "transactions": ["delivery", "pickup"], "location": {"address1": "51 Spring St", "address2": "", "address3": null, "city": "New York", "zip_code": "10012", "country": "US", "state": "NY", "display_address": ["51 Spring St", "New York, NY 10012"]}, "phone": "", "display_phone": "", "distance": 4699.209658117767}, {"id": "tsK6f3xyjfLTM7xtD1ZY-A", "alias": "neapolitan-express-new-york-5", "name": "Neapolitan Express", "image_url": "https://s3-media2.fl.yelpcdn.com/bphoto/d9t3W3Um9vehxJijpdN80Q/o.jpg", "is_closed": false, "url": "https://www.yelp.com/biz/neapolitan-express-new-york-5?adjust_creative=TqzhtA42spPSKOmzDuw9JA&utm_campaign=yelp_api_v3&utm_medium=api_v3_business_search&utm_source=TqzhtA42spPSKOmzDuw9JA", "review_count": 6, "categories": [{"alias": "pizza", "title": "Pizza"}], "rating": 4.3, "coordinates": {"latitude": 40.77991, "longitude": -73.9818}, "transactions": ["delivery", "pickup"], "price": "$$", "location": {"address1": "2109 Broadway", "address2": "", "address3": "", "city": "New York", "zip_code": "10023", "country": "US", "state": "NY", "display_address": ["2109 Broadway", "New York, NY 10023"]}, "phone": "+16467049415", "display_phone": "(646) 704-9415", "distance": 2556.321196070559}, {"id": "RG5atiZtuNtpDu6GrNUQGw", "alias": "norma-gastronomia-siciliana-new-york-7", "name": "Norma Gastronomia Siciliana", "image_url": "https://s3-media2.fl.yelpcdn.com/bphoto/0rgyw1KbSoutHV_RxbLgnQ/o.jpg", "is_closed": false, "url": "https://www.yelp.com/biz/norma-gastronomia-siciliana-new-york-7?adjust_creative=TqzhtA42spPSKOmzDuw9JA&utm_campaign=yelp_api_v3&utm_medium=api_v3_business_search&utm_source=TqzhtA42spPSKOmzDuw9JA", "review_count": 134, "categories": [{"alias": "italian", "title": "Italian"}, {"alias": "pizza", "title": "Pizza"}], "rating": 4.2, "coordinates": {"latitude": 40.76563298237293, "longitude": -73.98769143895947}, "transactions": [], "location": {"address1": "801 9th Ave", "address2": "", "address3": null, "city": "New York", "zip_code": "10019", "country": "US", "state": "NY", "display_address": ["801 9th Ave", "New York, NY 10019"]}, "phone": "+12128890600", "display_phone": "(212) 889-0600", "distance": 1686.4222304125724}, {"id": "KrXhqnKK-d8ydDW82uQSjA", "alias": "roma-pizza-new-york-6", "name": "Roma Pizza", "image_url": "https://s3-media3.fl.yelpcdn.com/bphoto/_vXjfZsDmSeQck6huetLCw/o.jpg", "is_closed": false, "url": "https://www.yelp.com/biz/roma-pizza-new-york-6?adjust_creative=TqzhtA42spPSKOmzDuw9JA&utm_campaign=yelp_api_v3&utm_medium=api_v3_business_search&utm_source=TqzhtA42spPSKOmzDuw9JA", "review_count": 7, "categories": [{"alias": "pizza", "title": "Pizza"}], "rating": 4.3, "coordinates": {"latitude": 40.76303747152467, "longitude": -73.98536754548573}, "transactions": ["delivery", "pickup"], "location": {"address1": "852 8th Ave", "address2": "", "address3": null, "city": "New York", "zip_code": "10019", "country": "US", "state": "NY", "display_address": ["852 8th Ave", "New York, NY 10019"]}, "phone": "+12127867777", "display_phone": "(212) 786-7777", "distance": 1397.8125930950469}, {"id": "gJg_Gh2lqrCprDzR6ZP9QQ", "alias": "314-pizza-pasta-and-cocktail-bar-new-york", "name": "314 Pizza Pasta & Cocktail Bar", "image_url": "https://s3-media4.fl.yelpcdn.com/bphoto/wl0mUD7AtJKpldfIKyn4Kw/o.jpg", "is_closed": false, "url": "https://www.yelp.com/biz/314-pizza-pasta-and-cocktail-bar-new-york?adjust_creative=TqzhtA42spPSKOmzDuw9JA&utm_campaign=yelp_api_v3&utm_medium=api_v3_business_search&utm_source=TqzhtA42spPSKOmzDuw9JA", "review_count": 153, "categories": [{"alias": "italian", "title": "Italian"}, {"alias": "pizza", "title": "Pizza"}, {"alias": "cocktailbars", "title": "Cocktail Bars"}], "rating": 4.5, "coordinates": {"latitude": 40.8141969, "longitude": -73.9598383}, "transactions": ["delivery", "pickup"], "price": "$$", "location": {"address1": "3143 Broadway", "address2": "", "address3": null, "city": "New York", "zip_code": "10027", "country": "US", "state": "NY", "display_address": ["3143 Broadway", "New York, NY 10027"]}, "phone": "+16466827645", "display_phone": "(646) 682-7645", "distance": 6172.842454467146}, {"id": "jDIVPYpxQAk1HUAi0NIlQw", "alias": "pazza-notte-new-york-2", "name": "Pazza Notte", "image_url": "https://s3-media2.fl.yelpcdn.com/bphoto/F9Y4jyMvEHWyswXTcdS55A/o.jpg", "is_closed": false, "url": "https://www.yelp.com/biz/pazza-notte-new-york-2?adjust_creative=TqzhtA42spPSKOmzDuw9JA&utm_campaign=yelp_api_v3&utm_medium=api_v3_business_search&utm_source=TqzhtA42spPSKOmzDuw9JA", "review_count": 1104, "categories": [{"alias": "italian", "title": "Italian"}, {"alias": "lounges", "title": "Lounges"}, {"alias": "pizza", "title": "Pizza"}], "rating": 3.9, "coordinates": {"latitude": 40.763454, "longitude": -73.97818}, "transactions": ["delivery", "pickup"], "price": "$$", "location": {"address1": "1375 6th Ave", "address2": "", "address3": "", "city": "New York", "zip_code": "10019", "country": "US", "state": "NY", "display_address": ["1375 6th Ave", "New York, NY 10019"]}, "phone": "+12127656288", "display_phone": "(212) 765-6288", "distance": 874.0680022824323}, {"id": "xbrQ2dHuQoFJmNxAuOky4A", "alias": "vics-new-york", "name": "Vic's", "image_url": "https://s3-media3.fl.yelpcdn.com/bphoto/yL5tplD1Lh0VCpJNxr29EA/o.jpg", "is_closed": false, "url": "https://www.yelp.com/biz/vics-new-york?adjust_creative=TqzhtA42spPSKOmzDuw9JA&utm_campaign=yelp_api_v3&utm_medium=api_v3_business_search&utm_source=TqzhtA42spPSKOmzDuw9JA", "review_count": 618, "categories": [{"alias": "italian", "title": "Italian"}, {"alias": "pastashops", "title": "Pasta Shops"}, {"alias": "pizza", "title": "Pizza"}], "rating": 4.3, "coordinates": {"latitude": 40.72693, "longitude": -73.99319}, "transactions": ["delivery", "pickup"], "price": "$$", "location": {"address1": "31 Great Jones St", "address2": "", "address3": "", "city": "New York", "zip_code": "10012", "country": "US", "state": "NY", "display_address": ["31 Great Jones St", "New York, NY 10012"]}, "phone": "+12122535700", "display_phone": "(212) 253-5700", "distance": 4104.554817582975}, {"id": "cL2vCU3UxsEQa7cyxB6INw", "alias": "the-original-little-italy-new-york-5", "name": "The Original Little Italy", "image_url": "https://s3-media1.fl.yelpcdn.com/bphoto/hP12YSXw6cRe7L7zwel5Hg/o.jpg", "is_closed": false, "url": "https://www.yelp.com/biz/the-original-little-italy-new-york-5?adjust_creative=TqzhtA42spPSKOmzDuw9JA&utm_campaign=yelp_api_v3&utm_medium=api_v3_business_search&utm_source=TqzhtA42spPSKOmzDuw9JA", "review_count": 8, "categories": [{"alias": "pizza", "title": "Pizza"}, {"alias": "salad", "title": "Salad"}, {"alias": "sandwiches", "title": "Sandwiches"}], "rating": 4.1, "coordinates": {"latitude": 40.7512798, "longitude": -73.98194400000001}, "transactions": ["delivery", "pickup"], "location": {"address1": "2 E 39th St Off 5th Ave", "address2": "", "address3": null, "city": "New York", "zip_code": "10016", "country": "US", "state": "NY", "display_address": ["2 E 39th St Off 5th Ave", "New York, NY 10016"]}, "phone": "+12126611425", "display_phone": "(212) 661-1425", "distance": 1362.457255550341}, {"id": "2xQmBB6w-W6lxiex80fA9A", "alias": "luigis-pizzeria-brooklyn-4", "name": "Luigi's Pizzeria", "image_url": "https://s3-media4.fl.yelpcdn.com/bphoto/j8wXRUzFnc8XJCFqpt5ZsQ/o.jpg", "is_closed": false, "url": "https://www.yelp.com/biz/luigis-pizzeria-brooklyn-4?adjust_creative=TqzhtA42spPSKOmzDuw9JA&utm_campaign=yelp_api_v3&utm_medium=api_v3_business_search&utm_source=TqzhtA42spPSKOmzDuw9JA", "review_count": 301, "categories": [{"alias": "pizza", "title": "Pizza"}], "rating": 4.4, "coordinates": {"latitude": 40.6897, "longitude": -73.965369}, "transactions": ["delivery"], "price": "$", "location": {"address1": "326 Dekalb Ave", "address2": "", "address3": "", "city": "Brooklyn", "zip_code": "11205", "country": "US", "state": "NY", "display_address": ["326 Dekalb Ave", "Brooklyn, NY 11205"]}, "phone": "+17187832430", "display_phone": "(718) 783-2430", "distance": 7733.348984949855}, {"id": "Lw58gDv9ipwtOcg2EIJp3w", "alias": "napoli-pizza-and-pasta-astoria-4", "name": "Napoli Pizza & Pasta", "image_url": "https://s3-media4.fl.yelpcdn.com/bphoto/ee6rX6E6UG_h2bKvPFWOUg/o.jpg", "is_closed": false, "url": "https://www.yelp.com/biz/napoli-pizza-and-pasta-astoria-4?adjust_creative=TqzhtA42spPSKOmzDuw9JA&utm_campaign=yelp_api_v3&utm_medium=api_v3_business_search&utm_source=TqzhtA42spPSKOmzDuw9JA", "review_count": 365, "categories": [{"alias": "pizza", "title": "Pizza"}, {"alias": "italian", "title": "Italian"}], "rating": 3.9, "coordinates": {"latitude": 40.75718, "longitude": -73.92686}, "transactions": ["delivery", "pickup"], "price": "$", "location": {"address1": "33-02 35th Ave", "address2": "", "address3": "", "city": "Astoria", "zip_code": "11106", "country": "US", "state": "NY", "display_address": ["33-02 35th Ave", "Astoria, NY 11106"]}, "phone": "+17184721146", "display_phone": "(718) 472-1146", "distance": 3604.9517274597397}, {"id": "hq_lDiSnheYecX6H0hT7Fg", "alias": "la-trattoria-new-york", "name": "La Trattoria", "image_url": "https://s3-media1.fl.yelpcdn.com/bphoto/vlUc69V5Ko27JzBe0HnymQ/o.jpg", "is_closed": false, "url": "https://www.yelp.com/biz/la-trattoria-new-york?adjust_creative=TqzhtA42spPSKOmzDuw9JA&utm_campaign=yelp_api_v3&utm_medium=api_v3_business_search&utm_source=TqzhtA42spPSKOmzDuw9JA", "review_count": 100, "categories": [{"alias": "pizza", "title": "Pizza"}], "rating": 3.2, "coordinates": {"latitude": 40.75161, "longitude": -73.97069}, "transactions": ["delivery", "pickup"], "price": "$", "location": {"address1": "844 2nd Ave", "address2": "", "address3": "", "city": "New York", "zip_code": "10017", "country": "US", "state": "NY", "display_address": ["844 2nd Ave", "New York, NY 10017"]}, "phone": "+12126825656", "display_phone": "(212) 682-5656", "distance": 850.2506049479168}, {"id": "ApZ_j43jjSZQe2AMDdO46w", "alias": "grand-street-pizza-new-york", "name": "Grand Street Pizza", "image_url": "https://s3-media2.fl.yelpcdn.com/bphoto/8EDsxDQWBUKW66gFtVYcFg/o.jpg", "is_closed": false, "url": "https://www.yelp.com/biz/grand-street-pizza-new-york?adjust_creative=TqzhtA42spPSKOmzDuw9JA&utm_campaign=yelp_api_v3&utm_medium=api_v3_business_search&utm_source=TqzhtA42spPSKOmzDuw9JA", "review_count": 67, "categories": [{"alias": "pizza", "title": "Pizza"}], "rating": 4.5, "coordinates": {"latitude": 40.7164, "longitude": -73.98767}, "transactions": ["delivery", "pickup"], "location": {"address1": "384 Grand St", "address2": "", "address3": null, "city": "New York", "zip_code": "10002", "country": "US", "state": "NY", "display_address": ["384 Grand St", "New York, NY 10002"]}, "phone": "+16469186194", "display_phone": "(646) 918-6194", "distance": 4992.784044014803}, {"id": "uH1rHM0BomrX80D9xk-Qgg", "alias": "little-italy-pizza-new-york-11", "name": "Little Italy Pizza", "image_url": "https://s3-media4.fl.yelpcdn.com/bphoto/XTsso1MKbl940EKgqC_HmQ/o.jpg", "is_closed": false, "url": "https://www.yelp.com/biz/little-italy-pizza-new-york-11?adjust_creative=TqzhtA42spPSKOmzDuw9JA&utm_campaign=yelp_api_v3&utm_medium=api_v3_business_search&utm_source=TqzhtA42spPSKOmzDuw9JA", "review_count": 317, "categories": [{"alias": "pizza", "title": "Pizza"}, {"alias": "italian", "title": "Italian"}], "rating": 3.4, "coordinates": {"latitude": 40.7778264823318, "longitude": -73.9825049309491}, "transactions": ["delivery", "pickup"], "price": "$", "location": {"address1": "2047 Broadway", "address2": "", "address3": "", "city": "New York", "zip_code": "10023", "country": "US", "state": "NY", "display_address": ["2047 Broadway", "New York, NY 10023"]}, "phone": "+12123628822", "display_phone": "(212) 362-8822", "distance": 2342.4861653146704}, {"id": "1OZPOWZwJr-hpvMt6TD4ug", "alias": "milkflower-astoria", "name": "Milkflower", "image_url": "https://s3-media3.fl.yelpcdn.com/bphoto/TvbgSXgVb3KoxMmj51DIvw/o.jpg", "is_closed": false, "url": "https://www.yelp.com/biz/milkflower-astoria?adjust_creative=TqzhtA42spPSKOmzDuw9JA&utm_campaign=yelp_api_v3&utm_medium=api_v3_business_search&utm_source=TqzhtA42spPSKOmzDuw9JA", "review_count": 791, "categories": [{"alias": "pizza", "title": "Pizza"}], "rating": 4.3, "coordinates": {"latitude": 40.7628961, "longitude": -73.9207081}, "transactions": ["delivery", "pickup"], "price": "$$", "location": {"address1": "3412 31st Ave", "address2": "", "address3": "", "city": "Astoria", "zip_code": "11106", "country": "US", "state": "NY", "display_address": ["3412 31st Ave", "Astoria, NY 11106"]}, "phone": "+17182041300", "display_phone": "(718) 204-1300", "distance": 4136.39558761701}, {"id": "l-sydBgfRgBX2qYCG-KB0w", "alias": "two-boots-pizza-upper-east-side-new-york-3", "name": "Two Boots Pizza Upper East Side", "image_url": "https://s3-media4.fl.yelpcdn.com/bphoto/AVm-qrjGOMBErX3a2EhfMw/o.jpg", "is_closed": false, "url": "https://www.yelp.com/biz/two-boots-pizza-upper-east-side-new-york-3?adjust_creative=TqzhtA42spPSKOmzDuw9JA&utm_campaign=yelp_api_v3&utm_medium=api_v3_business_search&utm_source=TqzhtA42spPSKOmzDuw9JA", "review_count": 23, "categories": [{"alias": "pizza", "title": "Pizza"}], "rating": 4.2, "coordinates": {"latitude": 40.76469, "longitude": -73.961713}, "transactions": ["delivery", "pickup"], "location": {"address1": "1243 2nd Ave", "address2": "", "address3": null, "city": "New York", "zip_code": "10065", "country": "US", "state": "NY", "display_address": ["1243 2nd Ave", "New York, NY 10065"]}, "phone": "+16468376015", "display_phone": "(646) 837-6015", "distance": 893.499502851414}, {"id": "oOr6Ta5gZyDl6PyZ1cq7pg", "alias": "east-village-pizza-new-york", "name": "East Village Pizza", "image_url": "https://s3-media3.fl.yelpcdn.com/bphoto/z9NuUc3FkNFI_WlofelXeA/o.jpg", "is_closed": false, "url": "https://www.yelp.com/biz/east-village-pizza-new-york?adjust_creative=TqzhtA42spPSKOmzDuw9JA&utm_campaign=yelp_api_v3&utm_medium=api_v3_business_search&utm_source=TqzhtA42spPSKOmzDuw9JA", "review_count": 550, "categories": [{"alias": "pizza", "title": "Pizza"}], "rating": 4.1, "coordinates": {"latitude": 40.728212, "longitude": -73.985182}, "transactions": ["delivery", "pickup"], "price": "$", "location": {"address1": "145 1st Ave", "address2": "", "address3": "", "city": "New York", "zip_code": "10003", "country": "US", "state": "NY", "display_address": ["145 1st Ave", "New York, NY 10003"]}, "phone": "+12125294545", "display_phone": "(212) 529-4545", "distance": 3687.1791420143304}, {"id": "wLzJbddDixAEZrF7VT6_hw", "alias": "bono-trattoria-new-york", "name": "Bono Trattoria", "image_url": "https://s3-media2.fl.yelpcdn.com/bphoto/RdZA72SZ7Dcryd4hho4XBw/o.jpg", "is_closed": false, "url": "https://www.yelp.com/biz/bono-trattoria-new-york?adjust_creative=TqzhtA42spPSKOmzDuw9JA&utm_campaign=yelp_api_v3&utm_medium=api_v3_business_search&utm_source=TqzhtA42spPSKOmzDuw9JA", "review_count": 374, "categories": [{"alias": "pizza", "title": "Pizza"}, {"alias": "italian", "title": "Italian"}], "rating": 4.3, "coordinates": {"latitude": 40.8301996389829, "longitude": -73.9473449424522}, "transactions": ["delivery", "pickup"], "price": "$$", "location": {"address1": "3658 Broadway", "address2": "", "address3": "", "city": "New York", "zip_code": "10031", "country": "US", "state": "NY", "display_address": ["3658 Broadway", "New York, NY 10031"]}, "phone": "+16466829249", "display_phone": "(646) 682-9249", "distance": 8116.263399653803}, {"id": "atbANdSznV29GI066I2Ijw", "alias": "champion-pizza-new-york-6", "name": "Champion Pizza", "image_url": "https://s3-media2.fl.yelpcdn.com/bphoto/2YxKlleamZjV0574gwTnYQ/o.jpg", "is_closed": false, "url": "https://www.yelp.com/biz/champion-pizza-new-york-6?adjust_creative=TqzhtA42spPSKOmzDuw9JA&utm_campaign=yelp_api_v3&utm_medium=api_v3_business_search&utm_source=TqzhtA42spPSKOmzDuw9JA", "review_count": 457, "categories": [{"alias": "pizza", "title": "Pizza"}], "rating": 4.4, "coordinates": {"latitude": 40.7215270996094, "longitude": -73.9970855712891}, "transactions": ["delivery", "pickup"], "price": "$", "location": {"address1": "17 Cleveland Pl", "address2": null, "address3": null, "city": "New York", "zip_code": "10012", "country": "US", "state": "NY", "display_address": ["17 Cleveland Pl", "New York, NY 10012"]}, "phone": "+12122263777", "display_phone": "(212) 226-3777", "distance": 4784.296835090845}, {"id": "wZYbXxPDQ0rnHhA5XKuhfg", "alias": "norma-new-york-6", "name": "Norma", "image_url": "https://s3-media3.fl.yelpcdn.com/bphoto/YYP2LgO4lQG7wxqOCKUISA/o.jpg", "is_closed": false, "url": "https://www.yelp.com/biz/norma-new-york-6?adjust_creative=TqzhtA42spPSKOmzDuw9JA&utm_campaign=yelp_api_v3&utm_medium=api_v3_business_search&utm_source=TqzhtA42spPSKOmzDuw9JA", "review_count": 26, "categories": [{"alias": "italian", "title": "Italian"}, {"alias": "coffee", "title": "Coffee & Tea"}, {"alias": "pizza", "title": "Pizza"}], "rating": 4.5, "coordinates": {"latitude": 40.76562351932489, "longitude": -73.98776998361288}, "transactions": ["delivery", "pickup"], "location": {"address1": "801 9th Ave", "address2": "", "address3": null, "city": "New York", "zip_code": "10019", "country": "US", "state": "NY", "display_address": ["801 9th Ave", "New York, NY 10019"]}, "phone": "+12122466000", "display_phone": "(212) 246-6000", "distance": 1691.9638697259736}, {"id": "yfiomiWHk8Alndmkp1M_Ug", "alias": "tonda-pizza-new-york", "name": "Tonda Pizza", "image_url": "https://s3-media2.fl.yelpcdn.com/bphoto/uest1e_YpmxQQs05ipdUKg/o.jpg", "is_closed": false, "url": "https://www.yelp.com/biz/tonda-pizza-new-york?adjust_creative=TqzhtA42spPSKOmzDuw9JA&utm_campaign=yelp_api_v3&utm_medium=api_v3_business_search&utm_source=TqzhtA42spPSKOmzDuw9JA", "review_count": 29, "categories": [{"alias": "pizza", "title": "Pizza"}, {"alias": "coffee", "title": "Coffee & Tea"}, {"alias": "sandwiches", "title": "Sandwiches"}], "rating": 4.5, "coordinates": {"latitude": 40.74696, "longitude": -73.988595}, "transactions": ["delivery", "pickup"], "location": {"address1": "1231 Broadway", "address2": null, "address3": "", "city": "New York", "zip_code": "10001", "country": "US", "state": "NY", "display_address": ["1231 Broadway", "New York, NY 10001"]}, "phone": "", "display_phone": "", "distance": 2100.5722615657496}, {"id": "u_bN9Tai2jF1lSY_zQwqnQ", "alias": "fumo-new-york-9", "name": "Fumo", "image_url": "https://s3-media1.fl.yelpcdn.com/bphoto/QcrFjg4S--9YronVC1L63g/o.jpg", "is_closed": false, "url": "https://www.yelp.com/biz/fumo-new-york-9?adjust_creative=TqzhtA42spPSKOmzDuw9JA&utm_campaign=yelp_api_v3&utm_medium=api_v3_business_search&utm_source=TqzhtA42spPSKOmzDuw9JA", "review_count": 85, "categories": [{"alias": "pizza", "title": "Pizza"}, {"alias": "italian", "title": "Italian"}, {"alias": "bars", "title": "Bars"}], "rating": 3.9, "coordinates": {"latitude": 40.776618, "longitude": -73.95233}, "transactions": ["delivery", "pickup"], "location": {"address1": "1626 2nd Ave", "address2": null, "address3": "", "city": "New York", "zip_code": "10028", "country": "US", "state": "NY", "display_address": ["1626 2nd Ave", "New York, NY 10028"]}, "phone": "+16464299887", "display_phone": "(646) 429-9887", "distance": 2423.225910284912}, {"id": "3gLXLkoRaabzVo-8QlPdsQ", "alias": "la-vista-pizza-new-york", "name": "La vista Pizza", "image_url": "https://s3-media4.fl.yelpcdn.com/bphoto/_UTOAQfRkFKXg_S0QXuUBw/o.jpg", "is_closed": false, "url": "https://www.yelp.com/biz/la-vista-pizza-new-york?adjust_creative=TqzhtA42spPSKOmzDuw9JA&utm_campaign=yelp_api_v3&utm_medium=api_v3_business_search&utm_source=TqzhtA42spPSKOmzDuw9JA", "review_count": 22, "categories": [{"alias": "pizza", "title": "Pizza"}, {"alias": "italian", "title": "Italian"}, {"alias": "sandwiches", "title": "Sandwiches"}], "rating": 3.4, "coordinates": {"latitude": 40.759937, "longitude": -73.965147}, "transactions": ["delivery", "pickup"], "location": {"address1": "1099 2nd Ave", "address2": "", "address3": null, "city": "New York", "zip_code": "10022", "country": "US", "state": "NY", "display_address": ["1099 2nd Ave", "New York, NY 10022"]}, "phone": "", "display_phone": "", "distance": 383.729033250551}, {"id": "t0Bel7xLMUt5g8qIpBylZg", "alias": "and-pizza-nomad-new-york-2", "name": "&pizza - NoMad", "image_url": "https://s3-media4.fl.yelpcdn.com/bphoto/-r690MCOdJO_obdGjmHBcw/o.jpg", "is_closed": false, "url": "https://www.yelp.com/biz/and-pizza-nomad-new-york-2?adjust_creative=TqzhtA42spPSKOmzDuw9JA&utm_campaign=yelp_api_v3&utm_medium=api_v3_business_search&utm_source=TqzhtA42spPSKOmzDuw9JA", "review_count": 541, "categories": [{"alias": "pizza", "title": "Pizza"}, {"alias": "vegan", "title": "Vegan"}, {"alias": "vegetarian", "title": "Vegetarian"}], "rating": 4.3, "coordinates": {"latitude": 40.74520457937066, "longitude": -73.98823142051697}, "transactions": [], "price": "$$", "location": {"address1": "15 W 28th St", "address2": "", "address3": null, "city": "New York", "zip_code": "10001", "country": "US", "state": "NY", "display_address": ["15 W 28th St", "New York, NY 10001"]}, "phone": "+12023501129", "display_phone": "(202) 350-1129", "distance": 2209.75068254828}, {"id": "JP5DnHbYWBxGRjy9_16TdQ", "alias": "bosino-new-york", "name": "Bosino", "image_url": "https://s3-media1.fl.yelpcdn.com/bphoto/zMtkPH1AsG8FIKwCQBcdpg/o.jpg", "is_closed": false, "url": "https://www.yelp.com/biz/bosino-new-york?adjust_creative=TqzhtA42spPSKOmzDuw9JA&utm_campaign=yelp_api_v3&utm_medium=api_v3_business_search&utm_source=TqzhtA42spPSKOmzDuw9JA", "review_count": 94, "categories": [{"alias": "pizza", "title": "Pizza"}, {"alias": "italian", "title": "Italian"}], "rating": 4.6, "coordinates": {"latitude": 40.798755, "longitude": -73.9673646}, "transactions": ["delivery", "pickup"], "location": {"address1": "201 W 103rd St", "address2": null, "address3": "", "city": "New York", "zip_code": "10025", "country": "US", "state": "NY", "display_address": ["201 W 103rd St", "New York, NY 10025"]}, "phone": "+16467558770", "display_phone": "(646) 755-8770", "distance": 4405.0528768509075}, {"id": "Qab4GBAxxjacF4KsXLFETA", "alias": "sal-and-carmines-pizza-new-york", "name": "Sal & Carmine's Pizza", "image_url": "https://s3-media1.fl.yelpcdn.com/bphoto/4dZtKO-F5t1cmk8FjpOURw/o.jpg", "is_closed": false, "url": "https://www.yelp.com/biz/sal-and-carmines-pizza-new-york?adjust_creative=TqzhtA42spPSKOmzDuw9JA&utm_campaign=yelp_api_v3&utm_medium=api_v3_business_search&utm_source=TqzhtA42spPSKOmzDuw9JA", "review_count": 421, "categories": [{"alias": "pizza", "title": "Pizza"}, {"alias": "italian", "title": "Italian"}], "rating": 3.8, "coordinates": {"latitude": 40.7983115, "longitude": -73.9694405}, "transactions": ["delivery", "pickup"], "price": "$", "location": {"address1": "2671 Broadway", "address2": "", "address3": "", "city": "New York", "zip_code": "10025", "country": "US", "state": "NY", "display_address": ["2671 Broadway", "New York, NY 10025"]}, "phone": "+12126637651", "display_phone": "(212) 663-7651", "distance": 4359.762203321366}, {"id": "OTu7QR9R7NCJy_9ilLK4fA", "alias": "dudes-pizza-new-york", "name": "Dudes Pizza", "image_url": "https://s3-media2.fl.yelpcdn.com/bphoto/eEsnDGsGq22ZcZuvdpX1HQ/o.jpg", "is_closed": false, "url": "https://www.yelp.com/biz/dudes-pizza-new-york?adjust_creative=TqzhtA42spPSKOmzDuw9JA&utm_campaign=yelp_api_v3&utm_medium=api_v3_business_search&utm_source=TqzhtA42spPSKOmzDuw9JA", "review_count": 6, "categories": [{"alias": "pizza", "title": "Pizza"}], "rating": 4.3, "coordinates": {"latitude": 40.753193, "longitude": -73.992266}, "transactions": ["delivery", "pickup"], "location": {"address1": "270 W 36th St", "address2": null, "address3": "", "city": "New York", "zip_code": "10018", "country": "US", "state": "NY", "display_address": ["270 W 36th St", "New York, NY 10018"]}, "phone": "+19295338079", "display_phone": "(929) 533-8079", "distance": 2024.8607754681395}, {"id": "RL2MgBZTzP_Cui0VEEyjrQ", "alias": "emmy-squared-pizza-hells-kitchen-new-york", "name": "Emmy Squared Pizza - Hell's Kitchen", "image_url": "https://s3-media3.fl.yelpcdn.com/bphoto/7aROudZJyX59B30K2FlszA/o.jpg", "is_closed": false, "url": "https://www.yelp.com/biz/emmy-squared-pizza-hells-kitchen-new-york?adjust_creative=TqzhtA42spPSKOmzDuw9JA&utm_campaign=yelp_api_v3&utm_medium=api_v3_business_search&utm_source=TqzhtA42spPSKOmzDuw9JA", "review_count": 92, "categories": [{"alias": "pizza", "title": "Pizza"}, {"alias": "burgers", "title": "Burgers"}], "rating": 4.2, "coordinates": {"latitude": 40.7615, "longitude": -73.98754}, "transactions": ["delivery", "pickup"], "location": {"address1": "311 West 48th St", "address2": null, "address3": "", "city": "New York", "zip_code": "10019", "country": "US", "state": "NY", "display_address": ["311 West 48th St", "New York, NY 10019"]}, "phone": "+19294843669", "display_phone": "(929) 484-3669", "distance": 1538.5443732771907}, {"id": "B0qxEXABa8-t9sY4NQRRsQ", "alias": "fumo-harlem-new-york", "name": "Fumo - Harlem", "image_url": "https://s3-media2.fl.yelpcdn.com/bphoto/3bIraE_QWGgT5gbjbpI0vw/o.jpg", "is_closed": false, "url": "https://www.yelp.com/biz/fumo-harlem-new-york?adjust_creative=TqzhtA42spPSKOmzDuw9JA&utm_campaign=yelp_api_v3&utm_medium=api_v3_business_search&utm_source=TqzhtA42spPSKOmzDuw9JA", "review_count": 660, "categories": [{"alias": "pizza", "title": "Pizza"}, {"alias": "italian", "title": "Italian"}, {"alias": "bars", "title": "Bars"}], "rating": 4.1, "coordinates": {"latitude": 40.821427, "longitude": -73.950638}, "transactions": ["delivery", "pickup"], "price": "$$", "location": {"address1": "1600 Amsterdam Ave", "address2": "", "address3": null, "city": "New York", "zip_code": "10031", "country": "US", "state": "NY", "display_address": ["1600 Amsterdam Ave", "New York, NY 10031"]}, "phone": "+16466926675", "display_phone": "(646) 692-6675", "distance": 7103.3240386974385}, {"id": "TWH4MjLtN1fKlF-7n6YXHg", "alias": "lil-frankies-new-york", "name": "Lil Frankie's", "image_url": "https://s3-media2.fl.yelpcdn.com/bphoto/Q8Yx-tr7A0MWVYgi6lAqcQ/o.jpg", "is_closed": false, "url": "https://www.yelp.com/biz/lil-frankies-new-york?adjust_creative=TqzhtA42spPSKOmzDuw9JA&utm_campaign=yelp_api_v3&utm_medium=api_v3_business_search&utm_source=TqzhtA42spPSKOmzDuw9JA", "review_count": 1566, "categories": [{"alias": "pizza", "title": "Pizza"}, {"alias": "italian", "title": "Italian"}], "rating": 3.9, "coordinates": {"latitude": 40.7236168801459, "longitude": -73.988427}, "transactions": ["delivery", "pickup"], "price": "$$", "location": {"address1": "19 1st Ave", "address2": "", "address3": "", "city": "New York", "zip_code": "10003", "country": "US", "state": "NY", "display_address": ["19 1st Ave", "New York, NY 10003"]}, "phone": "+12124204900", "display_phone": "(212) 420-4900", "distance": 4260.950163656932}, {"id": "32VbG_XgkZIuye0PV-BxaA", "alias": "zero-otto-nove-new-york-3", "name": "Zero Otto Nove", "image_url": "https://s3-media4.fl.yelpcdn.com/bphoto/ZBFb9idAiW3GqnchUsmeJQ/o.jpg", "is_closed": false, "url": "https://www.yelp.com/biz/zero-otto-nove-new-york-3?adjust_creative=TqzhtA42spPSKOmzDuw9JA&utm_campaign=yelp_api_v3&utm_medium=api_v3_business_search&utm_source=TqzhtA42spPSKOmzDuw9JA", "review_count": 574, "categories": [{"alias": "italian", "title": "Italian"}, {"alias": "pizza", "title": "Pizza"}], "rating": 4.1, "coordinates": {"latitude": 40.7407551035259, "longitude": -73.9914887388588}, "transactions": ["delivery", "pickup"], "price": "$$", "location": {"address1": "15 W 21st St", "address2": "", "address3": "", "city": "New York", "zip_code": "10010", "country": "US", "state": "NY", "display_address": ["15 W 21st St", "New York, NY 10010"]}, "phone": "+12122420899", "display_phone": "(212) 242-0899", "distance": 2757.325627595686}, {"id": "3vuc7Gz95kY83gzxq1wnxA", "alias": "francescos-pizza-new-york", "name": "Francesco's Pizza", "image_url": "https://s3-media3.fl.yelpcdn.com/bphoto/g6ldYydGCCtiKs4_MV_cew/o.jpg", "is_closed": false, "url": "https://www.yelp.com/biz/francescos-pizza-new-york?adjust_creative=TqzhtA42spPSKOmzDuw9JA&utm_campaign=yelp_api_v3&utm_medium=api_v3_business_search&utm_source=TqzhtA42spPSKOmzDuw9JA", "review_count": 289, "categories": [{"alias": "pizza", "title": "Pizza"}, {"alias": "italian", "title": "Italian"}], "rating": 3.3, "coordinates": {"latitude": 40.77523, "longitude": -73.98075}, "transactions": ["delivery", "pickup"], "price": "$", "location": {"address1": "186 Columbus Ave", "address2": "", "address3": "", "city": "New York", "zip_code": "10023", "country": "US", "state": "NY", "display_address": ["186 Columbus Ave", "New York, NY 10023"]}, "phone": "+12127210066", "display_phone": "(212) 721-0066", "distance": 2012.6109204717188}, {"id": "j-vsTCIrppw9w7mOB_KHhg", "alias": "pizza-loves-sauce-new-york-2", "name": "Pizza Loves Sauce", "image_url": "https://s3-media2.fl.yelpcdn.com/bphoto/OfskPMiJTOBodntWPi99iQ/o.jpg", "is_closed": false, "url": "https://www.yelp.com/biz/pizza-loves-sauce-new-york-2?adjust_creative=TqzhtA42spPSKOmzDuw9JA&utm_campaign=yelp_api_v3&utm_medium=api_v3_business_search&utm_source=TqzhtA42spPSKOmzDuw9JA", "review_count": 52, "categories": [{"alias": "pizza", "title": "Pizza"}], "rating": 4.5, "coordinates": {"latitude": 40.723026, "longitude": -73.989664}, "transactions": ["delivery", "pickup"], "location": {"address1": "147 E Houston St", "address2": null, "address3": null, "city": "New York", "zip_code": "10002", "country": "US", "state": "NY", "display_address": ["147 E Houston St", "New York, NY 10002"]}, "phone": "+19174561013", "display_phone": "(917) 456-1013", "distance": 4368.21470846536}, {"id": "CiRj1B-gK5tRfbMkq3SBog", "alias": "robertas-new-york-3", "name": "Roberta's", "image_url": "https://s3-media3.fl.yelpcdn.com/bphoto/__bI5tzszdkyD9AdT_dfOw/o.jpg", "is_closed": false, "url": "https://www.yelp.com/biz/robertas-new-york-3?adjust_creative=TqzhtA42spPSKOmzDuw9JA&utm_campaign=yelp_api_v3&utm_medium=api_v3_business_search&utm_source=TqzhtA42spPSKOmzDuw9JA", "review_count": 6, "categories": [{"alias": "pizza", "title": "Pizza"}], "rating": 4.3, "coordinates": {"latitude": 40.71995520720623, "longitude": -73.98304455197378}, "transactions": ["delivery", "pickup"], "location": {"address1": "196 Stanton St", "address2": "", "address3": null, "city": "New York", "zip_code": "10002", "country": "US", "state": "NY", "display_address": ["196 Stanton St", "New York, NY 10002"]}, "phone": "", "display_phone": "", "distance": 4506.258394586746}, {"id": "AQpJB12Dm23ov_RUugdJCQ", "alias": "marinara-pizza-new-york-12", "name": "Marinara Pizza", "image_url": "https://s3-media2.fl.yelpcdn.com/bphoto/JeRLooNWrwakZ2j2Xy7ngg/o.jpg", "is_closed": false, "url": "https://www.yelp.com/biz/marinara-pizza-new-york-12?adjust_creative=TqzhtA42spPSKOmzDuw9JA&utm_campaign=yelp_api_v3&utm_medium=api_v3_business_search&utm_source=TqzhtA42spPSKOmzDuw9JA", "review_count": 53, "categories": [{"alias": "pizza", "title": "Pizza"}, {"alias": "pastashops", "title": "Pasta Shops"}, {"alias": "italian", "title": "Italian"}], "rating": 4.2, "coordinates": {"latitude": 40.72981, "longitude": -73.98658}, "transactions": ["delivery", "pickup"], "price": "$", "location": {"address1": "160 2nd Ave", "address2": "", "address3": null, "city": "New York", "zip_code": "10003", "country": "US", "state": "NY", "display_address": ["160 2nd Ave", "New York, NY 10003"]}, "phone": "+16468377000", "display_phone": "(646) 837-7000", "distance": 3566.402311796534}, {"id": "QPFxwkDYbc55C-nWQm36FA", "alias": "99-cent-fresh-pizza-new-york-12", "name": "99 Cent Fresh Pizza", "image_url": "https://s3-media3.fl.yelpcdn.com/bphoto/3ugKH0I2tR4ZpOVfqYK3iw/o.jpg", "is_closed": false, "url": "https://www.yelp.com/biz/99-cent-fresh-pizza-new-york-12?adjust_creative=TqzhtA42spPSKOmzDuw9JA&utm_campaign=yelp_api_v3&utm_medium=api_v3_business_search&utm_source=TqzhtA42spPSKOmzDuw9JA", "review_count": 325, "categories": [{"alias": "pizza", "title": "Pizza"}], "rating": 3.9, "coordinates": {"latitude": 40.754764, "longitude": -73.987443}, "transactions": ["delivery", "pickup"], "price": "$", "location": {"address1": "143 W 40th St", "address2": "", "address3": "", "city": "New York", "zip_code": "10018", "country": "US", "state": "NY", "display_address": ["143 W 40th St", "New York, NY 10018"]}, "phone": "+12123665550", "display_phone": "(212) 366-5550", "distance": 1582.9738246479662}, {"id": "lOSLnTElmUVC_vCP0q23TA", "alias": "salvos-pizzabar-new-york", "name": "Salvo's Pizzabar", "image_url": "https://s3-media1.fl.yelpcdn.com/bphoto/uorpp9y38c44DqZhX57mLQ/o.jpg", "is_closed": false, "url": "https://www.yelp.com/biz/salvos-pizzabar-new-york?adjust_creative=TqzhtA42spPSKOmzDuw9JA&utm_campaign=yelp_api_v3&utm_medium=api_v3_business_search&utm_source=TqzhtA42spPSKOmzDuw9JA", "review_count": 360, "categories": [{"alias": "italian", "title": "Italian"}, {"alias": "pizza", "title": "Pizza"}], "rating": 3.8, "coordinates": {"latitude": 40.7708511352539, "longitude": -73.950927734375}, "transactions": ["delivery", "pickup"], "price": "$$", "location": {"address1": "1477 York Ave", "address2": "", "address3": "", "city": "New York", "zip_code": "10075", "country": "US", "state": "NY", "display_address": ["1477 York Ave", "New York, NY 10075"]}, "phone": "+16465901925", "display_phone": "(646) 590-1925", "distance": 2037.5833477595777}, {"id": "-WdZvgWBMYg5fSuav78ZRA", "alias": "il-miglio-brick-oven-pizzeria-and-italian-restaurant-long-island-city-4", "name": "Il Miglio Brick Oven Pizzeria & Italian Restaurant", "image_url": "https://s3-media3.fl.yelpcdn.com/bphoto/4qw01WTj6BZF_g73p9B5Bw/o.jpg", "is_closed": false, "url": "https://www.yelp.com/biz/il-miglio-brick-oven-pizzeria-and-italian-restaurant-long-island-city-4?adjust_creative=TqzhtA42spPSKOmzDuw9JA&utm_campaign=yelp_api_v3&utm_medium=api_v3_business_search&utm_source=TqzhtA42spPSKOmzDuw9JA", "review_count": 57, "categories": [{"alias": "italian", "title": "Italian"}, {"alias": "pizza", "title": "Pizza"}, {"alias": "wraps", "title": "Wraps"}], "rating": 4.1, "coordinates": {"latitude": 40.761189, "longitude": -73.93967}, "transactions": ["delivery", "pickup"], "location": {"address1": "11-03 36th Ave", "address2": null, "address3": null, "city": "Long Island City", "zip_code": "11106", "country": "US", "state": "NY", "display_address": ["11-03 36th Ave", "Long Island City, NY 11106"]}, "phone": "+17187777676", "display_phone": "(718) 777-7676", "distance": 2530.600120909095}, {"id": "6mYQzAdPxa4S1ZtvjST1eg", "alias": "julianas-time-out-market-brooklyn", "name": "Juliana's - Time Out Market", "image_url": "https://s3-media3.fl.yelpcdn.com/bphoto/kqM6U4wGOhx1UtZtt2LMgA/o.jpg", "is_closed": false, "url": "https://www.yelp.com/biz/julianas-time-out-market-brooklyn?adjust_creative=TqzhtA42spPSKOmzDuw9JA&utm_campaign=yelp_api_v3&utm_medium=api_v3_business_search&utm_source=TqzhtA42spPSKOmzDuw9JA", "review_count": 4, "categories": [{"alias": "pizza", "title": "Pizza"}], "rating": 4.3, "coordinates": {"latitude": 40.703447, "longitude": -73.99215}, "transactions": [], "location": {"address1": "55 Water St", "address2": "", "address3": null, "city": "Brooklyn", "zip_code": "11201", "country": "US", "state": "NY", "display_address": ["55 Water St", "Brooklyn, NY 11201"]}, "phone": "", "display_phone": "", "distance": 6482.044355598257}, {"id": "fH8DkdRerw5LJ7fZZHRfeA", "alias": "leuca-brooklyn", "name": "Leuca", "image_url": "https://s3-media1.fl.yelpcdn.com/bphoto/hsFu0kv18BwG8gLBV5-Gyw/o.jpg", "is_closed": false, "url": "https://www.yelp.com/biz/leuca-brooklyn?adjust_creative=TqzhtA42spPSKOmzDuw9JA&utm_campaign=yelp_api_v3&utm_medium=api_v3_business_search&utm_source=TqzhtA42spPSKOmzDuw9JA", "review_count": 463, "categories": [{"alias": "italian", "title": "Italian"}, {"alias": "pastashops", "title": "Pasta Shops"}, {"alias": "pizza", "title": "Pizza"}], "rating": 4.0, "coordinates": {"latitude": 40.72215, "longitude": -73.95677}, "transactions": ["delivery", "pickup"], "price": "$$$", "location": {"address1": "111 N 12th St", "address2": "", "address3": "The William Vale Hotel", "city": "Brooklyn", "zip_code": "11249", "country": "US", "state": "NY", "display_address": ["111 N 12th St", "The William Vale Hotel", "Brooklyn, NY 11249"]}, "phone": "", "display_phone": "", "distance": 4190.596755948409}]