[{"id": "ysqgdbSrezXgVwER2kQWKA", "alias": "julianas-brooklyn-3", "name": "Juliana's", "image_url": "https://s3-media2.fl.yelpcdn.com/bphoto/od36nFW220aMFAnNP00ocw/o.jpg", "is_closed": false, "url": "https://www.yelp.com/biz/julianas-brooklyn-3?adjust_creative=TqzhtA42spPSKOmzDuw9JA&utm_campaign=yelp_api_v3&utm_medium=api_v3_business_search&utm_source=TqzhtA42spPSKOmzDuw9JA", "review_count": 2742, "categories": [{"alias": "pizza", "title": "Pizza"}], "rating": 4.5, "coordinates": {"latitude": 40.70274718768062, "longitude": -73.99343490196397}, "transactions": ["delivery"], "price": "$$", "location": {"address1": "19 Old Fulton St", "address2": "", "address3": "", "city": "Brooklyn", "zip_code": "11201", "country": "US", "state": "NY", "display_address": ["19 Old Fulton St", "Brooklyn, NY 11201"]}, "phone": "+17185966700", "display_phone": "(718) 596-6700", "distance": 308.56984360837544}, {"id": "zj8Lq1T8KIC5zwFief15jg", "alias": "prince-street-pizza-new-york-2", "name": "Prince Street Pizza", "image_url": "https://s3-media4.fl.yelpcdn.com/bphoto/bckPg7Lznyf4rQSqvCJ2WA/o.jpg", "is_closed": false, "url": "https://www.yelp.com/biz/prince-street-pizza-new-york-2?adjust_creative=TqzhtA42spPSKOmzDuw9JA&utm_campaign=yelp_api_v3&utm_medium=api_v3_business_search&utm_source=TqzhtA42spPSKOmzDuw9JA", "review_count": 5166, "categories": [{"alias": "pizza", "title": "Pizza"}, {"alias": "italian", "title": "Italian"}], "rating": 4.5, "coordinates": {"latitude": 40.72308755605564, "longitude": -73.99453001177575}, "transactions": ["pickup", "delivery"], "price": "$", "location": {"address1": "27 Prince St", "address2": null, "address3": "", "city": "New York", "zip_code": "10012", "country": "US", "state": "NY", "display_address": ["27 Prince St", "New York, NY 10012"]}, "phone": "+12129664100", "display_phone": "(212) 966-4100", "distance": 1961.8771417367063}, {"id": "WG639VkTjmK5dzydd1BBJA", "alias": "rubirosa-new-york-2", "name": "Rubirosa", "image_url": "https://s3-media3.fl.yelpcdn.com/bphoto/l0Phrnhhj78RFiDhLIOUyQ/o.jpg", "is_closed": false, "url": "https://www.yelp.com/biz/rubirosa-new-york-2?adjust_creative=TqzhtA42spPSKOmzDuw9JA&utm_campaign=yelp_api_v3&utm_medium=api_v3_business_search&utm_source=TqzhtA42spPSKOmzDuw9JA", "review_count": 3258, "categories": [{"alias": "italian", "title": "Italian"}, {"alias": "pizza", "title": "Pizza"}], "rating": 4.5, "coordinates": {"latitude": 40.722766, "longitude": -73.996233}, "transactions": ["pickup"], "price": "$$", "location": {"address1": "235 Mulberry St", "address2": "", "address3": "", "city": "New York", "zip_code": "10012", "country": "US", "state": "NY", "display_address": ["235 Mulberry St", "New York, NY 10012"]}, "phone": "+12129650500", "display_phone": "(212) 965-0500", "distance": 1932.9467701334759}, {"id": "peV8B-MMMZb1mrC9r6rfAA", "alias": "lucia-of-soho-new-york", "name": "Lucia of Soho", "image_url": "https://s3-media1.fl.yelpcdn.com/bphoto/wO7d04A4mTpviADiKk10Yg/o.jpg", "is_closed": false, "url": "https://www.yelp.com/biz/lucia-of-soho-new-york?adjust_creative=TqzhtA42spPSKOmzDuw9JA&utm_campaign=yelp_api_v3&utm_medium=api_v3_business_search&utm_source=TqzhtA42spPSKOmzDuw9JA", "review_count": 20, "categories": [{"alias": "pizza", "title": "Pizza"}], "rating": 5.0, "coordinates": {"latitude": 40.721416405112784, "longitude": -74.0043748}, "transactions": ["pickup", "delivery"], "location": {"address1": "375 Canal St", "address2": null, "address3": "", "city": "New York", "zip_code": "10013", "country": "US", "state": "NY", "display_address": ["375 Canal St", "New York, NY 10013"]}, "phone": "+19179652900", "display_phone": "(917) 965-2900", "distance": 1968.7604932148604}, {"id": "v1DHGRNCH9247WLYoaoA9A", "alias": "l-industrie-pizzeria-brooklyn", "name": "L'industrie Pizzeria", "image_url": "https://s3-media1.fl.yelpcdn.com/bphoto/1-VBwAOj0g9YKYey3V-Z6Q/o.jpg", "is_closed": false, "url": "https://www.yelp.com/biz/l-industrie-pizzeria-brooklyn?adjust_creative=TqzhtA42spPSKOmzDuw9JA&utm_campaign=yelp_api_v3&utm_medium=api_v3_business_search&utm_source=TqzhtA42spPSKOmzDuw9JA", "review_count": 1222, "categories": [{"alias": "pizza", "title": "Pizza"}], "rating": 4.5, "coordinates": {"latitude": 40.71162, "longitude": -73.95783}, "transactions": ["pickup", "delivery"], "price": "$", "location": {"address1": "254 S 2nd St", "address2": "", "address3": "", "city": "Brooklyn", "zip_code": "11211", "country": "US", "state": "NY", "display_address": ["254 S 2nd St", "Brooklyn, NY 11211"]}, "phone": "+17185990002", "display_phone": "(718) 599-0002", "distance": 3145.016041338447}, {"id": "G9hV4H2iGpWD8RoUpjtokg", "alias": "l-industrie-pizzeria-new-york", "name": "L\u2019industrie Pizzeria", "image_url": "https://s3-media3.fl.yelpcdn.com/bphoto/_ClrWIn3hJDFbf5UR0vtMg/o.jpg", "is_closed": false, "url": "https://www.yelp.com/biz/l-industrie-pizzeria-new-york?adjust_creative=TqzhtA42spPSKOmzDuw9JA&utm_campaign=yelp_api_v3&utm_medium=api_v3_business_search&utm_source=TqzhtA42spPSKOmzDuw9JA", "review_count": 84, "categories": [{"alias": "pizza", "title": "Pizza"}], "rating": 5.0, "coordinates": {"latitude": 40.73323443774397, "longitude": -74.0049081}, "transactions": [], "location": {"address1": "104 Christopher St", "address2": "", "address3": null, "city": "New York", "zip_code": "10014", "country": "US", "state": "NY", "display_address": ["104 Christopher St", "New York, NY 10014"]}, "phone": "", "display_phone": "", "distance": 3216.943100434747}, {"id": "2ggi1luerd3Mf_C82JvCYg", "alias": "grimaldis-pizzeria-brooklyn-4", "name": "Grimaldi's Pizzeria", "image_url": "https://s3-media1.fl.yelpcdn.com/bphoto/-vwbIOY8hlTeWnrS74jQMg/o.jpg", "is_closed": false, "url": "https://www.yelp.com/biz/grimaldis-pizzeria-brooklyn-4?adjust_creative=TqzhtA42spPSKOmzDuw9JA&utm_campaign=yelp_api_v3&utm_medium=api_v3_business_search&utm_source=TqzhtA42spPSKOmzDuw9JA", "review_count": 4983, "categories": [{"alias": "pizza", "title": "Pizza"}, {"alias": "desserts", "title": "Desserts"}, {"alias": "beer_and_wine", "title": "Beer, Wine & Spirits"}], "rating": 3.5, "coordinates": {"latitude": 40.7026459, "longitude": -73.9932413}, "transactions": ["delivery", "pickup"], "price": "$$", "location": {"address1": "1 Front St", "address2": "", "address3": "", "city": "Brooklyn", "zip_code": "11201", "country": "US", "state": "NY", "display_address": ["1 Front St", "Brooklyn, NY 11201"]}, "phone": "+17188584300", "display_phone": "(718) 858-4300", "distance": 323.61541267581333}, {"id": "uc5qQMzs96rzjK27epDCug", "alias": "joes-pizza-new-york-4", "name": "Joe's Pizza", "image_url": "https://s3-media3.fl.yelpcdn.com/bphoto/FKjd9RGuNH-ixnd7AQxj0g/o.jpg", "is_closed": false, "url": "https://www.yelp.com/biz/joes-pizza-new-york-4?adjust_creative=TqzhtA42spPSKOmzDuw9JA&utm_campaign=yelp_api_v3&utm_medium=api_v3_business_search&utm_source=TqzhtA42spPSKOmzDuw9JA", "review_count": 3095, "categories": [{"alias": "pizza", "title": "Pizza"}], "rating": 4.0, "coordinates": {"latitude": 40.73060076, "longitude": -74.00215997}, "transactions": ["delivery"], "price": "$", "location": {"address1": "7 Carmine St", "address2": "", "address3": "", "city": "New York", "zip_code": "10014", "country": "US", "state": "NY", "display_address": ["7 Carmine St", "New York, NY 10014"]}, "phone": "+12123661182", "display_phone": "(212) 366-1182", "distance": 2874.702513677348}, {"id": "hZBxJfZtDjnMzH_jNFNHRQ", "alias": "little-pizza-parlor-brooklyn", "name": "Little Pizza Parlor", "image_url": "https://s3-media1.fl.yelpcdn.com/bphoto/jXQyfTZrmrJ3ra7nfPh4FQ/o.jpg", "is_closed": false, "url": "https://www.yelp.com/biz/little-pizza-parlor-brooklyn?adjust_creative=TqzhtA42spPSKOmzDuw9JA&utm_campaign=yelp_api_v3&utm_medium=api_v3_business_search&utm_source=TqzhtA42spPSKOmzDuw9JA", "review_count": 68, "categories": [{"alias": "pizza", "title": "Pizza"}], "rating": 4.5, "coordinates": {"latitude": 40.692425, "longitude": -73.984467}, "transactions": ["pickup", "delivery"], "location": {"address1": "192 Duffield St", "address2": null, "address3": "", "city": "Brooklyn", "zip_code": "11201", "country": "US", "state": "NY", "display_address": ["192 Duffield St", "Brooklyn, NY 11201"]}, "phone": "+13477991249", "display_phone": "(347) 799-1249", "distance": 1668.414103945315}, {"id": "KEEXuHCYhsQJ-zpJhu98bA", "alias": "joes-pizza-new-york-148", "name": "Joe's Pizza", "image_url": "https://s3-media4.fl.yelpcdn.com/bphoto/FluVgKezP5ifs7greHV8Qg/o.jpg", "is_closed": false, "url": "https://www.yelp.com/biz/joes-pizza-new-york-148?adjust_creative=TqzhtA42spPSKOmzDuw9JA&utm_campaign=yelp_api_v3&utm_medium=api_v3_business_search&utm_source=TqzhtA42spPSKOmzDuw9JA", "review_count": 2131, "categories": [{"alias": "pizza", "title": "Pizza"}], "rating": 4.0, "coordinates": {"latitude": 40.7547, "longitude": -73.98696}, "transactions": ["pickup", "delivery"], "price": "$", "location": {"address1": "1435 Broadway", "address2": "", "address3": null, "city": "New York", "zip_code": "10018", "country": "US", "state": "NY", "display_address": ["1435 Broadway", "New York, NY 10018"]}, "phone": "+16465594878", "display_phone": "(646) 559-4878", "distance": 5508.746902433722}, {"id": "WIhm0W9197f_rRtDziq5qQ", "alias": "lombardis-pizza-new-york-4", "name": "Lombardi's Pizza", "image_url": "https://s3-media1.fl.yelpcdn.com/bphoto/lBq1IBr5ZEI3nJBCwHYxcg/o.jpg", "is_closed": false, "url": "https://www.yelp.com/biz/lombardis-pizza-new-york-4?adjust_creative=TqzhtA42spPSKOmzDuw9JA&utm_campaign=yelp_api_v3&utm_medium=api_v3_business_search&utm_source=TqzhtA42spPSKOmzDuw9JA", "review_count": 6619, "categories": [{"alias": "pizza", "title": "Pizza"}], "rating": 4.0, "coordinates": {"latitude": 40.7215934960083, "longitude": -73.9955956044561}, "transactions": ["pickup", "delivery"], "price": "$$", "location": {"address1": "32 Spring St", "address2": "", "address3": "", "city": "New York", "zip_code": "10012", "country": "US", "state": "NY", "display_address": ["32 Spring St", "New York, NY 10012"]}, "phone": "+12129417994", "display_phone": "(212) 941-7994", "distance": 1798.9959778083735}, {"id": "LF1QAuvpfX7KGQlg2zMg6Q", "alias": "johns-of-bleecker-street-new-york-2", "name": "John's of Bleecker Street", "image_url": "https://s3-media2.fl.yelpcdn.com/bphoto/Up7lhjRkQpl5PpmBQ0SFJQ/o.jpg", "is_closed": false, "url": "https://www.yelp.com/biz/johns-of-bleecker-street-new-york-2?adjust_creative=TqzhtA42spPSKOmzDuw9JA&utm_campaign=yelp_api_v3&utm_medium=api_v3_business_search&utm_source=TqzhtA42spPSKOmzDuw9JA", "review_count": 2701, "categories": [{"alias": "pizza", "title": "Pizza"}], "rating": 4.0, "coordinates": {"latitude": 40.73158, "longitude": -74.00332}, "transactions": ["pickup", "delivery"], "price": "$$", "location": {"address1": "278 Bleecker St", "address2": "", "address3": "", "city": "New York", "zip_code": "10014", "country": "US", "state": "NY", "display_address": ["278 Bleecker St", "New York, NY 10014"]}, "phone": "+12122431680", "display_phone": "(212) 243-1680", "distance": 3010.899021476809}, {"id": "6mYQzAdPxa4S1ZtvjST1eg", "alias": "julianas-time-out-market-brooklyn", "name": "Juliana's - Time Out Market", "image_url": "https://s3-media3.fl.yelpcdn.com/bphoto/kqM6U4wGOhx1UtZtt2LMgA/o.jpg", "is_closed": false, "url": "https://www.yelp.com/biz/julianas-time-out-market-brooklyn?adjust_creative=TqzhtA42spPSKOmzDuw9JA&utm_campaign=yelp_api_v3&utm_medium=api_v3_business_search&utm_source=TqzhtA42spPSKOmzDuw9JA", "review_count": 4, "categories": [{"alias": "pizza", "title": "Pizza"}], "rating": 4.5, "coordinates": {"latitude": 40.703447, "longitude": -73.99215}, "transactions": [], "location": {"address1": "55 Water St", "address2": "", "address3": null, "city": "Brooklyn", "zip_code": "11201", "country": "US", "state": "NY", "display_address": ["55 Water St", "Brooklyn, NY 11201"]}, "phone": "", "display_phone": "", "distance": 286.33958619941774}, {"id": "-9NO2IDCJMyNGZMAQ1-VQw", "alias": "ny-pizza-suprema-new-york", "name": "NY Pizza Suprema", "image_url": "https://s3-media4.fl.yelpcdn.com/bphoto/EqbDXneMuQP6pw6GemVdQA/o.jpg", "is_closed": false, "url": "https://www.yelp.com/biz/ny-pizza-suprema-new-york?adjust_creative=TqzhtA42spPSKOmzDuw9JA&utm_campaign=yelp_api_v3&utm_medium=api_v3_business_search&utm_source=TqzhtA42spPSKOmzDuw9JA", "review_count": 2578, "categories": [{"alias": "pizza", "title": "Pizza"}], "rating": 4.5, "coordinates": {"latitude": 40.7502059936523, "longitude": -73.9953231811523}, "transactions": ["pickup", "delivery"], "price": "$", "location": {"address1": "413 8th Ave", "address2": "", "address3": "", "city": "New York", "zip_code": "10001", "country": "US", "state": "NY", "display_address": ["413 8th Ave", "New York, NY 10001"]}, "phone": "+12125948939", "display_phone": "(212) 594-8939", "distance": 4977.847939164096}, {"id": "16ZnHpuaaBt92XWeJHCC5A", "alias": "olio-e-pi\u00f9-new-york-7", "name": "Olio e Pi\u00f9", "image_url": "https://s3-media4.fl.yelpcdn.com/bphoto/CUpPgz_Q4QBHxxxxDJJTTA/o.jpg", "is_closed": false, "url": "https://www.yelp.com/biz/olio-e-pi%C3%B9-new-york-7?adjust_creative=TqzhtA42spPSKOmzDuw9JA&utm_campaign=yelp_api_v3&utm_medium=api_v3_business_search&utm_source=TqzhtA42spPSKOmzDuw9JA", "review_count": 5170, "categories": [{"alias": "pizza", "title": "Pizza"}, {"alias": "italian", "title": "Italian"}, {"alias": "cocktailbars", "title": "Cocktail Bars"}], "rating": 4.5, "coordinates": {"latitude": 40.733798036104304, "longitude": -73.99977392649927}, "transactions": ["pickup", "delivery"], "price": "$$", "location": {"address1": "3 Greenwich Ave", "address2": null, "address3": "", "city": "New York", "zip_code": "10014", "country": "US", "state": "NY", "display_address": ["3 Greenwich Ave", "New York, NY 10014"]}, "phone": "+12122436546", "display_phone": "(212) 243-6546", "distance": 3186.3804982206075}, {"id": "EXQ0x2W9RTydIlHAU9MU1A", "alias": "mimis-pizza-new-york", "name": "Mimi's Pizza", "image_url": "https://s3-media3.fl.yelpcdn.com/bphoto/btcWJW_uNq7JEwk2wFMtiQ/o.jpg", "is_closed": false, "url": "https://www.yelp.com/biz/mimis-pizza-new-york?adjust_creative=TqzhtA42spPSKOmzDuw9JA&utm_campaign=yelp_api_v3&utm_medium=api_v3_business_search&utm_source=TqzhtA42spPSKOmzDuw9JA", "review_count": 173, "categories": [{"alias": "pizza", "title": "Pizza"}], "rating": 4.5, "coordinates": {"latitude": 40.778638, "longitude": -73.952895}, "transactions": ["pickup", "delivery"], "location": {"address1": "217 E 86th St", "address2": null, "address3": "", "city": "New York", "zip_code": "10028", "country": "US", "state": "NY", "display_address": ["217 E 86th St", "New York, NY 10028"]}, "phone": "+16468612518", "display_phone": "(646) 861-2518", "distance": 8852.345604022003}, {"id": "vpkTNjq9dRh9rT3Nh0pe-A", "alias": "nolita-pizza-new-york-2", "name": "Nolita Pizza", "image_url": "https://s3-media2.fl.yelpcdn.com/bphoto/_BKVVoeQoEeYf0DjWcfArg/o.jpg", "is_closed": false, "url": "https://www.yelp.com/biz/nolita-pizza-new-york-2?adjust_creative=TqzhtA42spPSKOmzDuw9JA&utm_campaign=yelp_api_v3&utm_medium=api_v3_business_search&utm_source=TqzhtA42spPSKOmzDuw9JA", "review_count": 240, "categories": [{"alias": "pizza", "title": "Pizza"}, {"alias": "gluten_free", "title": "Gluten-Free"}, {"alias": "italian", "title": "Italian"}], "rating": 4.5, "coordinates": {"latitude": 40.7208883, "longitude": -73.9962404}, "transactions": ["pickup", "delivery"], "price": "$", "location": {"address1": "68 Kenmare St", "address2": null, "address3": null, "city": "New York", "zip_code": "10012", "country": "US", "state": "NY", "display_address": ["68 Kenmare St", "New York, NY 10012"]}, "phone": "+16468959131", "display_phone": "(646) 895-9131", "distance": 1725.0543086810944}, {"id": "i_rg-OLXQbpRUN7O3MeCeA", "alias": "piz-zetta-pizzeria-brooklyn", "name": "Piz-zetta Pizzeria", "image_url": "https://s3-media2.fl.yelpcdn.com/bphoto/rEKWLFnjgEtBr6poVeZznA/o.jpg", "is_closed": false, "url": "https://www.yelp.com/biz/piz-zetta-pizzeria-brooklyn?adjust_creative=TqzhtA42spPSKOmzDuw9JA&utm_campaign=yelp_api_v3&utm_medium=api_v3_business_search&utm_source=TqzhtA42spPSKOmzDuw9JA", "review_count": 347, "categories": [{"alias": "italian", "title": "Italian"}, {"alias": "pizza", "title": "Pizza"}], "rating": 4.5, "coordinates": {"latitude": 40.69116658201196, "longitude": -73.99065911521895}, "transactions": ["pickup", "delivery"], "price": "$", "location": {"address1": "90 Livingston St", "address2": "", "address3": "", "city": "Brooklyn", "zip_code": "11201", "country": "US", "state": "NY", "display_address": ["90 Livingston St", "Brooklyn, NY 11201"]}, "phone": "+17184227878", "display_phone": "(718) 422-7878", "distance": 1616.95941062503}, {"id": "4h4Tuuc56YPO6lWfZ1bdSQ", "alias": "joes-pizza-new-york-152", "name": "Joe's Pizza", "image_url": "https://s3-media4.fl.yelpcdn.com/bphoto/sUjegcIlz9bo1s20BqM5KA/o.jpg", "is_closed": false, "url": "https://www.yelp.com/biz/joes-pizza-new-york-152?adjust_creative=TqzhtA42spPSKOmzDuw9JA&utm_campaign=yelp_api_v3&utm_medium=api_v3_business_search&utm_source=TqzhtA42spPSKOmzDuw9JA", "review_count": 546, "categories": [{"alias": "pizza", "title": "Pizza"}], "rating": 4.0, "coordinates": {"latitude": 40.7101297729083, "longitude": -74.0077206864953}, "transactions": ["pickup", "delivery"], "price": "$", "location": {"address1": "124 Fulton St", "address2": "", "address3": null, "city": "New York", "zip_code": "10038", "country": "US", "state": "NY", "display_address": ["124 Fulton St", "New York, NY 10038"]}, "phone": "+12122670860", "display_phone": "(212) 267-0860", "distance": 1245.9428626945232}, {"id": "oJ_XSPZFpvIt6rvheSQl7A", "alias": "bleecker-street-pizza-new-york", "name": "Bleecker Street Pizza", "image_url": "https://s3-media1.fl.yelpcdn.com/bphoto/uScs5HVlHXaZMKIroDaHSg/o.jpg", "is_closed": false, "url": "https://www.yelp.com/biz/bleecker-street-pizza-new-york?adjust_creative=TqzhtA42spPSKOmzDuw9JA&utm_campaign=yelp_api_v3&utm_medium=api_v3_business_search&utm_source=TqzhtA42spPSKOmzDuw9JA", "review_count": 2992, "categories": [{"alias": "pizza", "title": "Pizza"}, {"alias": "italian", "title": "Italian"}], "rating": 4.0, "coordinates": {"latitude": 40.7320627016512, "longitude": -74.0036552270137}, "transactions": ["pickup", "delivery"], "price": "$", "location": {"address1": "69 7th Ave S", "address2": null, "address3": "", "city": "New York", "zip_code": "10014", "country": "US", "state": "NY", "display_address": ["69 7th Ave S", "New York, NY 10014"]}, "phone": "+12129244466", "display_phone": "(212) 924-4466", "distance": 3073.5742196084057}]